{"type":"Topology","arcs":[],"objects":{"unique_drb_sites":{"type":"GeometryCollection","geometries":[{"type":"Point","coordinates":[-75.014,41.082],"properties":{"site_id":"11NPSWRD_WQX-ERMN_DEWA_BMI_3029","source":"Other","latitude":41.0824,"longitude":-75.0143}},{"type":"Point","coordinates":[-75.005,41.032],"properties":{"site_id":"11NPSWRD_WQX-ERMN_DEWA_BMI_3030","source":"Other","latitude":41.0318,"longitude":-75.0053}},{"type":"Point","coordinates":[-74.913,41.124],"properties":{"site_id":"11NPSWRD_WQX-ERMN_DEWA_PWSM_1007","source":"Other","latitude":41.1242,"longitude":-74.9128}},{"type":"Point","coordinates":[-74.813,41.202],"properties":{"site_id":"11NPSWRD_WQX-ERMN_DEWA_PWSM_2001","source":"Other","latitude":41.2015,"longitude":-74.8132}},{"type":"Point","coordinates":[-75.033,41.086],"properties":{"site_id":"11NPSWRD_WQX-ERMN_DEWA_PWSM_2006","source":"Other","latitude":41.0855,"longitude":-75.0328}},{"type":"Point","coordinates":[-74.862,41.176],"properties":{"site_id":"11NPSWRD_WQX-ERMN_DEWA_PWSM_2008","source":"Other","latitude":41.176,"longitude":-74.8618}},{"type":"Point","coordinates":[-74.957,41.105],"properties":{"site_id":"11NPSWRD_WQX-ERMN_DEWA_PWSM_2009","source":"Other","latitude":41.1045,"longitude":-74.9572}},{"type":"Point","coordinates":[-74.996,41.485],"properties":{"site_id":"11NPSWRD_WQX-ERMN_UPDE_PWSM_2002","source":"Other","latitude":41.4846,"longitude":-74.9958}},{"type":"Point","coordinates":[-74.756,41.427],"properties":{"site_id":"11NPSWRD_WQX-ERMN_UPDE_PWSM_2004","source":"Other","latitude":41.4272,"longitude":-74.7561}},{"type":"Point","coordinates":[-75.019,41.557],"properties":{"site_id":"11NPSWRD_WQX-ERMN_UPDE_PWSM_2005","source":"Other","latitude":41.5569,"longitude":-75.0188}},{"type":"Point","coordinates":[-75.061,41.673],"properties":{"site_id":"11NPSWRD_WQX-ERMN_UPDE_PWSM_2006","source":"Other","latitude":41.6726,"longitude":-75.0609}},{"type":"Point","coordinates":[-75.059,41.765],"properties":{"site_id":"11NPSWRD_WQX-ERMN_UPDE_PWSM_2007","source":"Other","latitude":41.7649,"longitude":-75.0587}},{"type":"Point","coordinates":[-75.281,41.952],"properties":{"site_id":"11NPSWRD_WQX-ERMN_UPDE_PWSM_2010","source":"Other","latitude":41.9517,"longitude":-75.2813}},{"type":"Point","coordinates":[-75.225,41.853],"properties":{"site_id":"11NPSWRD_WQX-ERMN_UPDE_PWSM_2011","source":"Other","latitude":41.8529,"longitude":-75.2247}},{"type":"Point","coordinates":[-75.292,41.953],"properties":{"site_id":"11NPSWRD_WQX-ERMN_UPDE_PWSM_2012","source":"Other","latitude":41.9529,"longitude":-75.2917}},{"type":"Point","coordinates":[-75.726,40.17],"properties":{"site_id":"11NPSWRD_WQX-HOFU_BOYER_04","source":"Other","latitude":40.1698611,"longitude":-75.7257778}},{"type":"Point","coordinates":[-75.628,40.151],"properties":{"site_id":"11NPSWRD_WQX-HOFU_BOYER_06","source":"Other","latitude":40.1508333,"longitude":-75.6281944}},{"type":"Point","coordinates":[-75.621,40.148],"properties":{"site_id":"11NPSWRD_WQX-HOFU_BOYER_07","source":"Other","latitude":40.1475278,"longitude":-75.621}},{"type":"Point","coordinates":[-75.568,40.141],"properties":{"site_id":"11NPSWRD_WQX-HOFU_BOYER_08","source":"Other","latitude":40.1409444,"longitude":-75.5681111}},{"type":"Point","coordinates":[-75.511,40.136],"properties":{"site_id":"11NPSWRD_WQX-HOFU_BOYER_10","source":"Other","latitude":40.136,"longitude":-75.5114167}},{"type":"Point","coordinates":[-75.727,40.171],"properties":{"site_id":"11NPSWRD_WQX-HOFU_BWQM_2","source":"Other","latitude":40.1708333,"longitude":-75.7272222}},{"type":"Point","coordinates":[-75.69,40.171],"properties":{"site_id":"11NPSWRD_WQX-HOFU_BWQM_3","source":"Other","latitude":40.1708333,"longitude":-75.6902778}},{"type":"Point","coordinates":[-75.621,40.148],"properties":{"site_id":"11NPSWRD_WQX-HOFU_BWQM_4","source":"Other","latitude":40.1475,"longitude":-75.6213889}},{"type":"Point","coordinates":[-75.577,40.14],"properties":{"site_id":"11NPSWRD_WQX-HOFU_BWQM_5","source":"Other","latitude":40.14,"longitude":-75.5769444}},{"type":"Point","coordinates":[-75.629,40.151],"properties":{"site_id":"11NPSWRD_WQX-HOFU_CHS_FREN","source":"Other","latitude":40.1508056,"longitude":-75.6285833}},{"type":"Point","coordinates":[-75.745,40.061],"properties":{"site_id":"11NPSWRD_WQX-HOFU_NURE_5","source":"Other","latitude":40.0611944,"longitude":-75.7446944}},{"type":"Point","coordinates":[-75.76,40.19],"properties":{"site_id":"11NPSWRD_WQX-HOFU_PADEP_04PC","source":"Other","latitude":40.1897222,"longitude":-75.7597222}},{"type":"Point","coordinates":[-75.732,40.179],"properties":{"site_id":"11NPSWRD_WQX-HOFU_PADEP_05FC","source":"Other","latitude":40.1786111,"longitude":-75.7325}},{"type":"Point","coordinates":[-75.726,40.17],"properties":{"site_id":"11NPSWRD_WQX-HOFU_PADEP_06UN","source":"Other","latitude":40.17,"longitude":-75.7263889}},{"type":"Point","coordinates":[-75.695,40.171],"properties":{"site_id":"11NPSWRD_WQX-HOFU_PADEP_07RR","source":"Other","latitude":40.1708333,"longitude":-75.6947222}},{"type":"Point","coordinates":[-75.697,40.17],"properties":{"site_id":"11NPSWRD_WQX-HOFU_PADEP_08FC","source":"Other","latitude":40.17,"longitude":-75.6969444}},{"type":"Point","coordinates":[-75.694,40.169],"properties":{"site_id":"11NPSWRD_WQX-HOFU_PADEP_11SB","source":"Other","latitude":40.1691667,"longitude":-75.6936111}},{"type":"Point","coordinates":[-75.691,40.171],"properties":{"site_id":"11NPSWRD_WQX-HOFU_PADEP_12FC","source":"Other","latitude":40.1708333,"longitude":-75.6911111}},{"type":"Point","coordinates":[-75.671,40.161],"properties":{"site_id":"11NPSWRD_WQX-HOFU_PADEP_13BE","source":"Other","latitude":40.1605556,"longitude":-75.6705556}},{"type":"Point","coordinates":[-75.629,40.151],"properties":{"site_id":"11NPSWRD_WQX-HOFU_PADEP_14FC","source":"Other","latitude":40.1511111,"longitude":-75.6294444}},{"type":"Point","coordinates":[-75.623,40.147],"properties":{"site_id":"11NPSWRD_WQX-HOFU_PADEP_15BI","source":"Other","latitude":40.1472222,"longitude":-75.6230556}},{"type":"Point","coordinates":[-75.576,40.141],"properties":{"site_id":"11NPSWRD_WQX-HOFU_PADEP_16FC","source":"Other","latitude":40.1413889,"longitude":-75.5755556}},{"type":"Point","coordinates":[-75.728,40.169],"properties":{"site_id":"11NPSWRD_WQX-HOFU_PSU_2","source":"Other","latitude":40.1690278,"longitude":-75.7278056}},{"type":"Point","coordinates":[-75.69,40.171],"properties":{"site_id":"11NPSWRD_WQX-HOFU_PSU_3","source":"Other","latitude":40.1713889,"longitude":-75.6905}},{"type":"Point","coordinates":[-75.428,40.111],"properties":{"site_id":"11NPSWRD_WQX-MIDN_VAFO_01F","source":"Other","latitude":40.11055,"longitude":-75.42833}},{"type":"Point","coordinates":[-75.44,40.111],"properties":{"site_id":"11NPSWRD_WQX-MIDN_VAFO_02F","source":"Other","latitude":40.11054,"longitude":-75.4402}},{"type":"Point","coordinates":[-75.462,40.103],"properties":{"site_id":"11NPSWRD_WQX-MIDN_VAFO_03AF","source":"Other","latitude":40.1027,"longitude":-75.46162}},{"type":"Point","coordinates":[-75.462,40.103],"properties":{"site_id":"11NPSWRD_WQX-MIDN_VAFO_03F","source":"Other","latitude":40.10258,"longitude":-75.46176}},{"type":"Point","coordinates":[-75.457,40.093],"properties":{"site_id":"11NPSWRD_WQX-MIDN_VAFO_04F","source":"Other","latitude":40.09289,"longitude":-75.45665}},{"type":"Point","coordinates":[-75.458,40.081],"properties":{"site_id":"11NPSWRD_WQX-MIDN_VAFO_05F","source":"Other","latitude":40.08096,"longitude":-75.45756}},{"type":"Point","coordinates":[-75.485,40.068],"properties":{"site_id":"11NPSWRD_WQX-VAFO_ABI_LT","source":"Other","latitude":40.0681111,"longitude":-75.4848611}},{"type":"Point","coordinates":[-75.53,40.06],"properties":{"site_id":"11NPSWRD_WQX-VAFO_ABI_NS","source":"Other","latitude":40.0601389,"longitude":-75.5303611}},{"type":"Point","coordinates":[-75.587,40.055],"properties":{"site_id":"11NPSWRD_WQX-VAFO_ABI69_01","source":"Other","latitude":40.0554444,"longitude":-75.5872222}},{"type":"Point","coordinates":[-75.582,40.054],"properties":{"site_id":"11NPSWRD_WQX-VAFO_ABI69_02","source":"Other","latitude":40.0539722,"longitude":-75.5818889}},{"type":"Point","coordinates":[-75.565,40.052],"properties":{"site_id":"11NPSWRD_WQX-VAFO_ABI69_03","source":"Other","latitude":40.0521667,"longitude":-75.565}},{"type":"Point","coordinates":[-75.555,40.051],"properties":{"site_id":"11NPSWRD_WQX-VAFO_ABI69_04","source":"Other","latitude":40.0508333,"longitude":-75.5549167}},{"type":"Point","coordinates":[-75.558,40.05],"properties":{"site_id":"11NPSWRD_WQX-VAFO_ABI69_05","source":"Other","latitude":40.0500278,"longitude":-75.5584722}},{"type":"Point","coordinates":[-75.473,40.07],"properties":{"site_id":"11NPSWRD_WQX-VAFO_ABI69_10","source":"Other","latitude":40.0696944,"longitude":-75.4733333}},{"type":"Point","coordinates":[-75.463,40.099],"properties":{"site_id":"11NPSWRD_WQX-VAFO_ABI69_11","source":"Other","latitude":40.0994444,"longitude":-75.4630278}},{"type":"Point","coordinates":[-75.585,40.055],"properties":{"site_id":"11NPSWRD_WQX-VAFO_ABI74_1","source":"Other","latitude":40.0547222,"longitude":-75.5847778}},{"type":"Point","coordinates":[-75.557,40.051],"properties":{"site_id":"11NPSWRD_WQX-VAFO_ABI74_3","source":"Other","latitude":40.0508611,"longitude":-75.5568889}},{"type":"Point","coordinates":[-75.555,40.051],"properties":{"site_id":"11NPSWRD_WQX-VAFO_ABI74_4","source":"Other","latitude":40.0508611,"longitude":-75.5549167}},{"type":"Point","coordinates":[-75.473,40.07],"properties":{"site_id":"11NPSWRD_WQX-VAFO_ABI74_5","source":"Other","latitude":40.0696389,"longitude":-75.47325}},{"type":"Point","coordinates":[-75.456,40.087],"properties":{"site_id":"11NPSWRD_WQX-VAFO_ABI74_9","source":"Other","latitude":40.087206,"longitude":-75.456414}},{"type":"Point","coordinates":[-75.551,40.051],"properties":{"site_id":"11NPSWRD_WQX-VAFO_ABI75_1","source":"Other","latitude":40.0514167,"longitude":-75.5505556}},{"type":"Point","coordinates":[-75.532,40.057],"properties":{"site_id":"11NPSWRD_WQX-VAFO_ABI75_2","source":"Other","latitude":40.0569444,"longitude":-75.5324722}},{"type":"Point","coordinates":[-75.517,40.068],"properties":{"site_id":"11NPSWRD_WQX-VAFO_ABI75_3","source":"Other","latitude":40.0675,"longitude":-75.5169722}},{"type":"Point","coordinates":[-75.557,40.051],"properties":{"site_id":"11NPSWRD_WQX-VAFO_ABI76_1","source":"Other","latitude":40.0508333,"longitude":-75.5568611}},{"type":"Point","coordinates":[-75.553,40.051],"properties":{"site_id":"11NPSWRD_WQX-VAFO_ABI76_2","source":"Other","latitude":40.0510278,"longitude":-75.5525833}},{"type":"Point","coordinates":[-75.531,40.059],"properties":{"site_id":"11NPSWRD_WQX-VAFO_ABI76_3","source":"Other","latitude":40.0589167,"longitude":-75.5309722}},{"type":"Point","coordinates":[-75.473,40.07],"properties":{"site_id":"11NPSWRD_WQX-VAFO_ABI76_4","source":"Other","latitude":40.06975,"longitude":-75.4733056}},{"type":"Point","coordinates":[-75.457,40.081],"properties":{"site_id":"11NPSWRD_WQX-VAFO_ABI76_9","source":"Other","latitude":40.0812222,"longitude":-75.4569444}},{"type":"Point","coordinates":[-75.557,40.051],"properties":{"site_id":"11NPSWRD_WQX-VAFO_ABI78_1","source":"Other","latitude":40.0508611,"longitude":-75.5569444}},{"type":"Point","coordinates":[-75.553,40.051],"properties":{"site_id":"11NPSWRD_WQX-VAFO_ABI78_2","source":"Other","latitude":40.0510833,"longitude":-75.5525833}},{"type":"Point","coordinates":[-75.531,40.059],"properties":{"site_id":"11NPSWRD_WQX-VAFO_ABI78_3","source":"Other","latitude":40.0588611,"longitude":-75.5308889}},{"type":"Point","coordinates":[-75.473,40.07],"properties":{"site_id":"11NPSWRD_WQX-VAFO_ABI78_4","source":"Other","latitude":40.0696667,"longitude":-75.4732778}},{"type":"Point","coordinates":[-75.457,40.081],"properties":{"site_id":"11NPSWRD_WQX-VAFO_ABI78_5","source":"Other","latitude":40.0811667,"longitude":-75.457}},{"type":"Point","coordinates":[-75.552,40.051],"properties":{"site_id":"11NPSWRD_WQX-VAFO_ABI85_1","source":"Other","latitude":40.0510833,"longitude":-75.5523333}},{"type":"Point","coordinates":[-75.531,40.059],"properties":{"site_id":"11NPSWRD_WQX-VAFO_ABI85_2","source":"Other","latitude":40.0588611,"longitude":-75.5308889}},{"type":"Point","coordinates":[-75.519,40.065],"properties":{"site_id":"11NPSWRD_WQX-VAFO_ABI85_3","source":"Other","latitude":40.0648056,"longitude":-75.5188056}},{"type":"Point","coordinates":[-75.517,40.067],"properties":{"site_id":"11NPSWRD_WQX-VAFO_ABI85_5","source":"Other","latitude":40.0674722,"longitude":-75.5168889}},{"type":"Point","coordinates":[-75.49,40.066],"properties":{"site_id":"11NPSWRD_WQX-VAFO_ABI85_6","source":"Other","latitude":40.0657222,"longitude":-75.4903889}},{"type":"Point","coordinates":[-75.565,40.052],"properties":{"site_id":"11NPSWRD_WQX-VAFO_ABI94_03","source":"Other","latitude":40.0520833,"longitude":-75.5646667}},{"type":"Point","coordinates":[-75.558,40.051],"properties":{"site_id":"11NPSWRD_WQX-VAFO_ABI98_1","source":"Other","latitude":40.0508611,"longitude":-75.55775}},{"type":"Point","coordinates":[-75.557,40.051],"properties":{"site_id":"11NPSWRD_WQX-VAFO_ABI98_1A","source":"Other","latitude":40.0508889,"longitude":-75.5570833}},{"type":"Point","coordinates":[-75.556,40.051],"properties":{"site_id":"11NPSWRD_WQX-VAFO_ABI98_2","source":"Other","latitude":40.05075,"longitude":-75.5556111}},{"type":"Point","coordinates":[-75.556,40.051],"properties":{"site_id":"11NPSWRD_WQX-VAFO_ABI98_2A","source":"Other","latitude":40.0509167,"longitude":-75.5564167}},{"type":"Point","coordinates":[-75.531,40.059],"properties":{"site_id":"11NPSWRD_WQX-VAFO_CCHD_431","source":"Other","latitude":40.058569,"longitude":-75.531181}},{"type":"Point","coordinates":[-75.472,40.07],"properties":{"site_id":"11NPSWRD_WQX-VAFO_CCHD_434","source":"Other","latitude":40.0701389,"longitude":-75.4723056}},{"type":"Point","coordinates":[-75.463,40.1],"properties":{"site_id":"11NPSWRD_WQX-VAFO_CCHD_437","source":"Other","latitude":40.099753,"longitude":-75.462838}},{"type":"Point","coordinates":[-75.529,39.929],"properties":{"site_id":"11NPSWRD_WQX-VAFO_CHS_CREEK","source":"Other","latitude":39.9286667,"longitude":-75.5291944}},{"type":"Point","coordinates":[-75.449,39.994],"properties":{"site_id":"11NPSWRD_WQX-VAFO_CHS_CRUM","source":"Other","latitude":39.9936389,"longitude":-75.4486389}},{"type":"Point","coordinates":[-75.511,39.981],"properties":{"site_id":"11NPSWRD_WQX-VAFO_CHS_DUTT","source":"Other","latitude":39.9806111,"longitude":-75.5113056}},{"type":"Point","coordinates":[-75.489,39.968],"properties":{"site_id":"11NPSWRD_WQX-VAFO_CHS_GARRE","source":"Other","latitude":39.9676389,"longitude":-75.4894444}},{"type":"Point","coordinates":[-75.496,39.972],"properties":{"site_id":"11NPSWRD_WQX-VAFO_CHS_GARRW","source":"Other","latitude":39.9724722,"longitude":-75.4964722}},{"type":"Point","coordinates":[-75.569,40.141],"properties":{"site_id":"11NPSWRD_WQX-VAFO_CHS_KIM","source":"Other","latitude":40.1413889,"longitude":-75.5694167}},{"type":"Point","coordinates":[-75.491,39.972],"properties":{"site_id":"11NPSWRD_WQX-VAFO_CHS_RD1","source":"Other","latitude":39.9715556,"longitude":-75.4905556}},{"type":"Point","coordinates":[-75.52,39.983],"properties":{"site_id":"11NPSWRD_WQX-VAFO_CHS_RD2","source":"Other","latitude":39.9825556,"longitude":-75.5195556}},{"type":"Point","coordinates":[-75.463,40.101],"properties":{"site_id":"11NPSWRD_WQX-VAFO_CHS_VC1","source":"Other","latitude":40.1005278,"longitude":-75.4630556}},{"type":"Point","coordinates":[-75.471,40.07],"properties":{"site_id":"11NPSWRD_WQX-VAFO_CHS_VC2","source":"Other","latitude":40.0695833,"longitude":-75.4710278}},{"type":"Point","coordinates":[-75.519,40.065],"properties":{"site_id":"11NPSWRD_WQX-VAFO_CHS_VC3","source":"Other","latitude":40.0651111,"longitude":-75.5185278}},{"type":"Point","coordinates":[-75.454,39.993],"properties":{"site_id":"11NPSWRD_WQX-VAFO_CHS_WAY","source":"Other","latitude":39.9934722,"longitude":-75.4538611}},{"type":"Point","coordinates":[-75.555,40.051],"properties":{"site_id":"11NPSWRD_WQX-VAFO_DEP_98_01","source":"Other","latitude":40.0508056,"longitude":-75.5554722}},{"type":"Point","coordinates":[-75.555,40.051],"properties":{"site_id":"11NPSWRD_WQX-VAFO_DEP_98_02","source":"Other","latitude":40.0508056,"longitude":-75.5554722}},{"type":"Point","coordinates":[-75.533,40.057],"properties":{"site_id":"11NPSWRD_WQX-VAFO_DEP_98_03","source":"Other","latitude":40.0568056,"longitude":-75.5332222}},{"type":"Point","coordinates":[-75.532,40.057],"properties":{"site_id":"11NPSWRD_WQX-VAFO_DEP_98_04","source":"Other","latitude":40.0571389,"longitude":-75.5321944}},{"type":"Point","coordinates":[-75.532,40.058],"properties":{"site_id":"11NPSWRD_WQX-VAFO_DEP_98_06","source":"Other","latitude":40.0575833,"longitude":-75.5318889}},{"type":"Point","coordinates":[-75.532,40.058],"properties":{"site_id":"11NPSWRD_WQX-VAFO_DEP_98_08","source":"Other","latitude":40.0576944,"longitude":-75.5317778}},{"type":"Point","coordinates":[-75.519,40.065],"properties":{"site_id":"11NPSWRD_WQX-VAFO_DEP_98_26","source":"Other","latitude":40.0650833,"longitude":-75.5185556}},{"type":"Point","coordinates":[-75.532,40.058],"properties":{"site_id":"11NPSWRD_WQX-VAFO_DEP_98_27","source":"Other","latitude":40.0575833,"longitude":-75.5318889}},{"type":"Point","coordinates":[-75.529,40.06],"properties":{"site_id":"11NPSWRD_WQX-VAFO_DEP_98_29","source":"Other","latitude":40.06025,"longitude":-75.5290556}},{"type":"Point","coordinates":[-75.532,40.058],"properties":{"site_id":"11NPSWRD_WQX-VAFO_DEP_98_30","source":"Other","latitude":40.0577778,"longitude":-75.5317222}},{"type":"Point","coordinates":[-75.532,40.057],"properties":{"site_id":"11NPSWRD_WQX-VAFO_DEP98/9_05","source":"Other","latitude":40.0574167,"longitude":-75.5319167}},{"type":"Point","coordinates":[-75.532,40.058],"properties":{"site_id":"11NPSWRD_WQX-VAFO_DEP98/9_07","source":"Other","latitude":40.0576389,"longitude":-75.5317778}},{"type":"Point","coordinates":[-75.531,40.058],"properties":{"site_id":"11NPSWRD_WQX-VAFO_DEP98/9_09","source":"Other","latitude":40.0583611,"longitude":-75.5313056}},{"type":"Point","coordinates":[-75.531,40.058],"properties":{"site_id":"11NPSWRD_WQX-VAFO_DEP98/9_10","source":"Other","latitude":40.0584444,"longitude":-75.5311944}},{"type":"Point","coordinates":[-75.531,40.059],"properties":{"site_id":"11NPSWRD_WQX-VAFO_DEP98/9_18","source":"Other","latitude":40.0586944,"longitude":-75.5310556}},{"type":"Point","coordinates":[-75.531,40.059],"properties":{"site_id":"11NPSWRD_WQX-VAFO_DEP98/9_19","source":"Other","latitude":40.0587222,"longitude":-75.5311111}},{"type":"Point","coordinates":[-75.531,40.059],"properties":{"site_id":"11NPSWRD_WQX-VAFO_DEP98/9_20","source":"Other","latitude":40.0589444,"longitude":-75.5308889}},{"type":"Point","coordinates":[-75.53,40.059],"properties":{"site_id":"11NPSWRD_WQX-VAFO_DEP98/9_21","source":"Other","latitude":40.0594722,"longitude":-75.5305}},{"type":"Point","coordinates":[-75.53,40.06],"properties":{"site_id":"11NPSWRD_WQX-VAFO_DEP98/9_22","source":"Other","latitude":40.0601389,"longitude":-75.5302222}},{"type":"Point","coordinates":[-75.529,40.06],"properties":{"site_id":"11NPSWRD_WQX-VAFO_DEP98/9_23","source":"Other","latitude":40.0602778,"longitude":-75.5290556}},{"type":"Point","coordinates":[-75.528,40.061],"properties":{"site_id":"11NPSWRD_WQX-VAFO_DEP98/9_24","source":"Other","latitude":40.0607222,"longitude":-75.52775}},{"type":"Point","coordinates":[-75.526,40.062],"properties":{"site_id":"11NPSWRD_WQX-VAFO_DEP98/9_25","source":"Other","latitude":40.0615,"longitude":-75.5261944}},{"type":"Point","coordinates":[-75.466,40.098],"properties":{"site_id":"11NPSWRD_WQX-VAFO_NPS_FISH","source":"Other","latitude":40.0976944,"longitude":-75.4658333}},{"type":"Point","coordinates":[-75.46,40.104],"properties":{"site_id":"11NPSWRD_WQX-VAFO_NPS_HQSP","source":"Other","latitude":40.1037222,"longitude":-75.4595833}},{"type":"Point","coordinates":[-75.426,40.108],"properties":{"site_id":"11NPSWRD_WQX-VAFO_NPS_KALB","source":"Other","latitude":40.1080556,"longitude":-75.4265}},{"type":"Point","coordinates":[-75.456,40.085],"properties":{"site_id":"11NPSWRD_WQX-VAFO_NPS_MAXW","source":"Other","latitude":40.084983,"longitude":-75.456013}},{"type":"Point","coordinates":[-75.469,40.115],"properties":{"site_id":"11NPSWRD_WQX-VAFO_NPS_MEAD","source":"Other","latitude":40.1149722,"longitude":-75.4686944}},{"type":"Point","coordinates":[-75.422,40.108],"properties":{"site_id":"11NPSWRD_WQX-VAFO_NPS_PORT","source":"Other","latitude":40.1078056,"longitude":-75.4219167}},{"type":"Point","coordinates":[-75.463,40.1],"properties":{"site_id":"11NPSWRD_WQX-VAFO_NPS_VAL1","source":"Other","latitude":40.099753,"longitude":-75.462838}},{"type":"Point","coordinates":[-75.461,40.08],"properties":{"site_id":"11NPSWRD_WQX-VAFO_NPS_VAL2","source":"Other","latitude":40.08,"longitude":-75.461}},{"type":"Point","coordinates":[-75.473,40.07],"properties":{"site_id":"11NPSWRD_WQX-VAFO_NPS_VAL3","source":"Other","latitude":40.070067,"longitude":-75.472764}},{"type":"Point","coordinates":[-75.519,40.065],"properties":{"site_id":"11NPSWRD_WQX-VAFO_NPS_VAL4","source":"Other","latitude":40.0646667,"longitude":-75.5190556}},{"type":"Point","coordinates":[-75.53,40.06],"properties":{"site_id":"11NPSWRD_WQX-VAFO_NPS_VAL5","source":"Other","latitude":40.0598333,"longitude":-75.5303889}},{"type":"Point","coordinates":[-75.531,40.058],"properties":{"site_id":"11NPSWRD_WQX-VAFO_NPS_VAL6","source":"Other","latitude":40.05825,"longitude":-75.5313889}},{"type":"Point","coordinates":[-75.463,40.102],"properties":{"site_id":"11NPSWRD_WQX-VAFO_NPS_VAL7","source":"Other","latitude":40.1024722,"longitude":-75.4626389}},{"type":"Point","coordinates":[-75.456,40.086],"properties":{"site_id":"11NPSWRD_WQX-VAFO_NPS_VAL8","source":"Other","latitude":40.086414,"longitude":-75.456211}},{"type":"Point","coordinates":[-75.458,40.081],"properties":{"site_id":"11NPSWRD_WQX-VAFO_NPS_VALB","source":"Other","latitude":40.080886,"longitude":-75.457628}},{"type":"Point","coordinates":[-75.461,40.079],"properties":{"site_id":"11NPSWRD_WQX-VAFO_NPS_VALC","source":"Other","latitude":40.078836,"longitude":-75.461167}},{"type":"Point","coordinates":[-75.456,40.096],"properties":{"site_id":"11NPSWRD_WQX-VAFO_NPS_WASP","source":"Other","latitude":40.0961111,"longitude":-75.4559167}},{"type":"Point","coordinates":[-75.463,40.1],"properties":{"site_id":"11NPSWRD_WQX-VAFO_PSU_01","source":"Other","latitude":40.09975,"longitude":-75.4629722}},{"type":"Point","coordinates":[-75.458,40.095],"properties":{"site_id":"11NPSWRD_WQX-VAFO_PSU_02","source":"Other","latitude":40.0949722,"longitude":-75.4584722}},{"type":"Point","coordinates":[-75.457,40.092],"properties":{"site_id":"11NPSWRD_WQX-VAFO_PSU_03","source":"Other","latitude":40.0924722,"longitude":-75.4571111}},{"type":"Point","coordinates":[-75.457,40.081],"properties":{"site_id":"11NPSWRD_WQX-VAFO_PSU_04","source":"Other","latitude":40.081171,"longitude":-75.457004}},{"type":"Point","coordinates":[-75.473,40.07],"properties":{"site_id":"11NPSWRD_WQX-VAFO_PSU_06","source":"Other","latitude":40.0698611,"longitude":-75.4729167}},{"type":"Point","coordinates":[-75.518,40.065],"properties":{"site_id":"11NPSWRD_WQX-VAFO_PSU_07","source":"Other","latitude":40.0651389,"longitude":-75.5182778}},{"type":"Point","coordinates":[-75.555,40.051],"properties":{"site_id":"11NPSWRD_WQX-VAFO_PSU_08","source":"Other","latitude":40.0509444,"longitude":-75.5550278}},{"type":"Point","coordinates":[-75.577,40.141],"properties":{"site_id":"11NPSWRD_WQX-VAFO_PSU_4","source":"Other","latitude":40.1405833,"longitude":-75.5766389}},{"type":"Point","coordinates":[-75.516,40.136],"properties":{"site_id":"11NPSWRD_WQX-VAFO_PSU_5","source":"Other","latitude":40.1356667,"longitude":-75.5164167}},{"type":"Point","coordinates":[-75.555,40.051],"properties":{"site_id":"11NPSWRD_WQX-VAFO_RAS_03","source":"Other","latitude":40.0508333,"longitude":-75.5547222}},{"type":"Point","coordinates":[-75.551,40.051],"properties":{"site_id":"11NPSWRD_WQX-VAFO_RAS_05","source":"Other","latitude":40.0513889,"longitude":-75.5508333}},{"type":"Point","coordinates":[-75.546,40.051],"properties":{"site_id":"11NPSWRD_WQX-VAFO_RAS_06","source":"Other","latitude":40.0511111,"longitude":-75.5455556}},{"type":"Point","coordinates":[-75.531,40.058],"properties":{"site_id":"11NPSWRD_WQX-VAFO_RAS_07","source":"Other","latitude":40.058056,"longitude":-75.531364}},{"type":"Point","coordinates":[-75.53,40.059],"properties":{"site_id":"11NPSWRD_WQX-VAFO_RAS_08","source":"Other","latitude":40.0594444,"longitude":-75.5302778}},{"type":"Point","coordinates":[-75.53,40.059],"properties":{"site_id":"11NPSWRD_WQX-VAFO_RAS_08A","source":"Other","latitude":40.0594444,"longitude":-75.5302778}},{"type":"Point","coordinates":[-75.529,40.06],"properties":{"site_id":"11NPSWRD_WQX-VAFO_RAS_09","source":"Other","latitude":40.0602778,"longitude":-75.5288889}},{"type":"Point","coordinates":[-75.518,40.065],"properties":{"site_id":"11NPSWRD_WQX-VAFO_RAS_10","source":"Other","latitude":40.065286,"longitude":-75.518486}},{"type":"Point","coordinates":[-75.532,40.058],"properties":{"site_id":"11NPSWRD_WQX-VAFO_RAS_11","source":"Other","latitude":40.0580556,"longitude":-75.5322222}},{"type":"Point","coordinates":[-75.462,40.102],"properties":{"site_id":"11NPSWRD_WQX-VAFO_RMC_SR","source":"Other","latitude":40.102409,"longitude":-75.462442}},{"type":"Point","coordinates":[-75.517,40.067],"properties":{"site_id":"11NPSWRD_WQX-VAFO_TMS_1","source":"Other","latitude":40.0671667,"longitude":-75.51725}},{"type":"Point","coordinates":[-75.517,40.067],"properties":{"site_id":"11NPSWRD_WQX-VAFO_TMS_2","source":"Other","latitude":40.0674444,"longitude":-75.5170833}},{"type":"Point","coordinates":[-75.518,40.068],"properties":{"site_id":"11NPSWRD_WQX-VAFO_TMS_3","source":"Other","latitude":40.0675,"longitude":-75.5179722}},{"type":"Point","coordinates":[-75.531,40.059],"properties":{"site_id":"11NPSWRD_WQX-VAFO_TMS_4","source":"Other","latitude":40.0589722,"longitude":-75.5308611}},{"type":"Point","coordinates":[-75.532,40.057],"properties":{"site_id":"11NPSWRD_WQX-VAFO_TMS_5","source":"Other","latitude":40.0572778,"longitude":-75.5320556}},{"type":"Point","coordinates":[-75.515,40.068],"properties":{"site_id":"11NPSWRD_WQX-VAFO_TU_BVC","source":"Other","latitude":40.0679722,"longitude":-75.51525}},{"type":"Point","coordinates":[-75.473,40.07],"properties":{"site_id":"11NPSWRD_WQX-VAFO_TU_MR","source":"Other","latitude":40.0699722,"longitude":-75.4729167}},{"type":"Point","coordinates":[-75.519,40.065],"properties":{"site_id":"11NPSWRD_WQX-VAFO_TU_WF","source":"Other","latitude":40.065,"longitude":-75.5185833}},{"type":"Point","coordinates":[-75.474,40.07],"properties":{"site_id":"11NPSWRD_WQX-VAFO_USGS_VACR","source":"USGS","latitude":40.0697222,"longitude":-75.4736111}},{"type":"Point","coordinates":[-75.532,40.058],"properties":{"site_id":"11NPSWRD_WQX-VAFO_VC1_04A","source":"Other","latitude":40.0577222,"longitude":-75.5317778}},{"type":"Point","coordinates":[-75.531,40.058],"properties":{"site_id":"11NPSWRD_WQX-VAFO_VC1_05","source":"Other","latitude":40.0581389,"longitude":-75.5313056}},{"type":"Point","coordinates":[-75.531,40.059],"properties":{"site_id":"11NPSWRD_WQX-VAFO_VC1_08","source":"Other","latitude":40.0586389,"longitude":-75.5311389}},{"type":"Point","coordinates":[-75.531,40.059],"properties":{"site_id":"11NPSWRD_WQX-VAFO_VC1_09","source":"Other","latitude":40.0586944,"longitude":-75.5310556}},{"type":"Point","coordinates":[-75.531,40.059],"properties":{"site_id":"11NPSWRD_WQX-VAFO_VC1_10","source":"Other","latitude":40.0586944,"longitude":-75.5310556}},{"type":"Point","coordinates":[-75.531,40.059],"properties":{"site_id":"11NPSWRD_WQX-VAFO_VC1_11","source":"Other","latitude":40.0586944,"longitude":-75.5310556}},{"type":"Point","coordinates":[-75.531,40.059],"properties":{"site_id":"11NPSWRD_WQX-VAFO_VC1_12","source":"Other","latitude":40.0586944,"longitude":-75.5310556}},{"type":"Point","coordinates":[-75.531,40.059],"properties":{"site_id":"11NPSWRD_WQX-VAFO_VC1_13","source":"Other","latitude":40.0586944,"longitude":-75.5310556}},{"type":"Point","coordinates":[-75.531,40.059],"properties":{"site_id":"11NPSWRD_WQX-VAFO_VC1_14","source":"Other","latitude":40.0586944,"longitude":-75.5310556}},{"type":"Point","coordinates":[-75.531,40.059],"properties":{"site_id":"11NPSWRD_WQX-VAFO_VC1_15","source":"Other","latitude":40.0586944,"longitude":-75.5310556}},{"type":"Point","coordinates":[-75.531,40.059],"properties":{"site_id":"11NPSWRD_WQX-VAFO_VC1_16","source":"Other","latitude":40.0587222,"longitude":-75.5309167}},{"type":"Point","coordinates":[-75.531,40.059],"properties":{"site_id":"11NPSWRD_WQX-VAFO_VC1_17","source":"Other","latitude":40.0587778,"longitude":-75.5310278}},{"type":"Point","coordinates":[-75.531,40.059],"properties":{"site_id":"11NPSWRD_WQX-VAFO_VC1_18","source":"Other","latitude":40.0588611,"longitude":-75.5309167}},{"type":"Point","coordinates":[-75.531,40.059],"properties":{"site_id":"11NPSWRD_WQX-VAFO_VC1_19","source":"Other","latitude":40.0593056,"longitude":-75.5306111}},{"type":"Point","coordinates":[-75.53,40.06],"properties":{"site_id":"11NPSWRD_WQX-VAFO_VC1_21","source":"Other","latitude":40.06025,"longitude":-75.5296111}},{"type":"Point","coordinates":[-75.555,40.051],"properties":{"site_id":"11NPSWRD_WQX-VAFO_VC1_ML","source":"Other","latitude":40.0508611,"longitude":-75.5553333}},{"type":"Point","coordinates":[-75.552,40.051],"properties":{"site_id":"11NPSWRD_WQX-VAFO_VC1_RT","source":"Other","latitude":40.0513611,"longitude":-75.5517222}},{"type":"Point","coordinates":[-75.457,40.081],"properties":{"site_id":"11NPSWRD_WQX-VAFO_VNU_VC","source":"Other","latitude":40.0811944,"longitude":-75.4568611}},{"type":"Point","coordinates":[-75.516,39.754],"properties":{"site_id":"21DELAWQ_WQX-102011","source":"Other","latitude":39.753732,"longitude":-75.51589}},{"type":"Point","coordinates":[-75.517,39.763],"properties":{"site_id":"21DELAWQ_WQX-102051","source":"Other","latitude":39.763006,"longitude":-75.516873}},{"type":"Point","coordinates":[-75.508,39.778],"properties":{"site_id":"21DELAWQ_WQX-102081","source":"Other","latitude":39.778276,"longitude":-75.507523}},{"type":"Point","coordinates":[-75.527,39.795],"properties":{"site_id":"21DELAWQ_WQX-102091","source":"Other","latitude":39.795169,"longitude":-75.527328}},{"type":"Point","coordinates":[-75.517,39.789],"properties":{"site_id":"21DELAWQ_WQX-102105","source":"Other","latitude":39.789203,"longitude":-75.51696}},{"type":"Point","coordinates":[-75.533,39.798],"properties":{"site_id":"21DELAWQ_WQX-102106","source":"Other","latitude":39.798099,"longitude":-75.533344}},{"type":"Point","coordinates":[-75.64,39.716],"properties":{"site_id":"21DELAWQ_WQX-103011","source":"Other","latitude":39.716317,"longitude":-75.64038}},{"type":"Point","coordinates":[-75.637,39.763],"properties":{"site_id":"21DELAWQ_WQX-103031","source":"Other","latitude":39.762878,"longitude":-75.636578}},{"type":"Point","coordinates":[-75.658,39.798],"properties":{"site_id":"21DELAWQ_WQX-103041","source":"Other","latitude":39.798165,"longitude":-75.658087}},{"type":"Point","coordinates":[-75.68,39.806],"properties":{"site_id":"21DELAWQ_WQX-103051","source":"Other","latitude":39.806249,"longitude":-75.680332}},{"type":"Point","coordinates":[-75.648,39.799],"properties":{"site_id":"21DELAWQ_WQX-103061","source":"Other","latitude":39.798869,"longitude":-75.648414}},{"type":"Point","coordinates":[-75.667,39.808],"properties":{"site_id":"21DELAWQ_WQX-103071","source":"Other","latitude":39.808327,"longitude":-75.666843}},{"type":"Point","coordinates":[-75.655,39.801],"properties":{"site_id":"21DELAWQ_WQX-103101","source":"Other","latitude":39.80062,"longitude":-75.6548}},{"type":"Point","coordinates":[-75.638,39.744],"properties":{"site_id":"21DELAWQ_WQX-103102","source":"Other","latitude":39.744097,"longitude":-75.638205}},{"type":"Point","coordinates":[-75.648,39.798],"properties":{"site_id":"21DELAWQ_WQX-103103","source":"Other","latitude":39.797866,"longitude":-75.647652}},{"type":"Point","coordinates":[-75.637,39.771],"properties":{"site_id":"21DELAWQ_WQX-103105","source":"Other","latitude":39.770861,"longitude":-75.636929}},{"type":"Point","coordinates":[-75.556,39.76],"properties":{"site_id":"21DELAWQ_WQX-104011","source":"Other","latitude":39.76004,"longitude":-75.556093}},{"type":"Point","coordinates":[-75.579,39.77],"properties":{"site_id":"21DELAWQ_WQX-104021","source":"Other","latitude":39.769832,"longitude":-75.578844}},{"type":"Point","coordinates":[-75.579,39.838],"properties":{"site_id":"21DELAWQ_WQX-104051","source":"Other","latitude":39.837734,"longitude":-75.578859}},{"type":"Point","coordinates":[-75.652,39.707],"properties":{"site_id":"21DELAWQ_WQX-105011","source":"Other","latitude":39.707247,"longitude":-75.652492}},{"type":"Point","coordinates":[-75.76,39.733],"properties":{"site_id":"21DELAWQ_WQX-105031","source":"Other","latitude":39.73272,"longitude":-75.759953}},{"type":"Point","coordinates":[-75.675,39.699],"properties":{"site_id":"21DELAWQ_WQX-105151","source":"Other","latitude":39.698957,"longitude":-75.675438}},{"type":"Point","coordinates":[-75.738,39.69],"properties":{"site_id":"21DELAWQ_WQX-105171","source":"Other","latitude":39.68997,"longitude":-75.73759}},{"type":"Point","coordinates":[-75.761,39.736],"properties":{"site_id":"21DELAWQ_WQX-105214","source":"Other","latitude":39.73559,"longitude":-75.76135}},{"type":"Point","coordinates":[-75.761,39.719],"properties":{"site_id":"21DELAWQ_WQX-105220","source":"Other","latitude":39.718722,"longitude":-75.761403}},{"type":"Point","coordinates":[-75.669,39.656],"properties":{"site_id":"21DELAWQ_WQX-106031","source":"Other","latitude":39.655652,"longitude":-75.669098}},{"type":"Point","coordinates":[-75.728,39.637],"properties":{"site_id":"21DELAWQ_WQX-106141","source":"Other","latitude":39.637456,"longitude":-75.72848}},{"type":"Point","coordinates":[-75.754,39.653],"properties":{"site_id":"21DELAWQ_WQX-106151","source":"Other","latitude":39.653473,"longitude":-75.754377}},{"type":"Point","coordinates":[-75.772,39.669],"properties":{"site_id":"21DELAWQ_WQX-106181","source":"Other","latitude":39.669286,"longitude":-75.771717}},{"type":"Point","coordinates":[-75.777,39.691],"properties":{"site_id":"21DELAWQ_WQX-106191","source":"Other","latitude":39.690794,"longitude":-75.776792}},{"type":"Point","coordinates":[-75.68,39.637],"properties":{"site_id":"21DELAWQ_WQX-106331","source":"Other","latitude":39.637158,"longitude":-75.680179}},{"type":"Point","coordinates":[-75.779,39.687],"properties":{"site_id":"21DELAWQ_WQX-106405","source":"Other","latitude":39.687033,"longitude":-75.778965}},{"type":"Point","coordinates":[-75.713,39.437],"properties":{"site_id":"21DELAWQ_WQX-109081","source":"Other","latitude":39.437435,"longitude":-75.712924}},{"type":"Point","coordinates":[-75.741,39.429],"properties":{"site_id":"21DELAWQ_WQX-109241","source":"Other","latitude":39.429368,"longitude":-75.741134}},{"type":"Point","coordinates":[-75.661,39.373],"properties":{"site_id":"21DELAWQ_WQX-110021","source":"Other","latitude":39.372576,"longitude":-75.661465}},{"type":"Point","coordinates":[-75.679,39.351],"properties":{"site_id":"21DELAWQ_WQX-110101","source":"Other","latitude":39.350956,"longitude":-75.678713}},{"type":"Point","coordinates":[-75.621,39.309],"properties":{"site_id":"21DELAWQ_WQX-201181","source":"Other","latitude":39.308736,"longitude":-75.621479}},{"type":"Point","coordinates":[-75.634,39.315],"properties":{"site_id":"21DELAWQ_WQX-201201","source":"Other","latitude":39.315394,"longitude":-75.633764}},{"type":"Point","coordinates":[-75.545,39.183],"properties":{"site_id":"21DELAWQ_WQX-205151","source":"Other","latitude":39.182891,"longitude":-75.545444}},{"type":"Point","coordinates":[-75.564,39.195],"properties":{"site_id":"21DELAWQ_WQX-205161","source":"Other","latitude":39.19548,"longitude":-75.563995}},{"type":"Point","coordinates":[-75.578,39.199],"properties":{"site_id":"21DELAWQ_WQX-205171","source":"Other","latitude":39.198862,"longitude":-75.577701}},{"type":"Point","coordinates":[-75.521,39.168],"properties":{"site_id":"21DELAWQ_WQX-205191","source":"Other","latitude":39.168291,"longitude":-75.521224}},{"type":"Point","coordinates":[-75.623,39.199],"properties":{"site_id":"21DELAWQ_WQX-205271","source":"Other","latitude":39.199383,"longitude":-75.622931}},{"type":"Point","coordinates":[-75.519,39.163],"properties":{"site_id":"21DELAWQ_WQX-205571","source":"Other","latitude":39.163124,"longitude":-75.519198}},{"type":"Point","coordinates":[-75.568,38.976],"properties":{"site_id":"21DELAWQ_WQX-206011","source":"Other","latitude":38.975858,"longitude":-75.567529}},{"type":"Point","coordinates":[-75.581,38.993],"properties":{"site_id":"21DELAWQ_WQX-206311","source":"Other","latitude":38.99296,"longitude":-75.58081}},{"type":"Point","coordinates":[-75.578,38.983],"properties":{"site_id":"21DELAWQ_WQX-206332","source":"Other","latitude":38.9833,"longitude":-75.5779}},{"type":"Point","coordinates":[-75.569,38.975],"properties":{"site_id":"21DELAWQ_WQX-206341","source":"Other","latitude":38.974837,"longitude":-75.568971}},{"type":"Point","coordinates":[-75.582,38.992],"properties":{"site_id":"21DELAWQ_WQX-206351","source":"Other","latitude":38.992269,"longitude":-75.582438}},{"type":"Point","coordinates":[-75.512,38.906],"properties":{"site_id":"21DELAWQ_WQX-208231","source":"Other","latitude":38.905658,"longitude":-75.512446}},{"type":"Point","coordinates":[-75.433,38.914],"properties":{"site_id":"21DELAWQ_WQX-208331","source":"Other","latitude":38.913891,"longitude":-75.433293}},{"type":"Point","coordinates":[-75.465,38.911],"properties":{"site_id":"21DELAWQ_WQX-208371","source":"Other","latitude":38.91121,"longitude":-75.464879}},{"type":"Point","coordinates":[-75.327,38.814],"properties":{"site_id":"21DELAWQ_WQX-303381","source":"Other","latitude":38.814057,"longitude":-75.327067}},{"type":"Point","coordinates":[-75.082,39.585],"properties":{"site_id":"21NJDEP1-01411453","source":"Other","latitude":39.58542,"longitude":-75.0816}},{"type":"Point","coordinates":[-75.072,39.635],"properties":{"site_id":"21NJDEP1-01411457","source":"Other","latitude":39.6349155,"longitude":-75.0721115}},{"type":"Point","coordinates":[-75.076,39.597],"properties":{"site_id":"21NJDEP1-01411458","source":"Other","latitude":39.59697,"longitude":-75.076}},{"type":"Point","coordinates":[-75.076,39.496],"properties":{"site_id":"21NJDEP1-01411500","source":"Other","latitude":39.4957,"longitude":-75.0763}},{"type":"Point","coordinates":[-75.072,39.448],"properties":{"site_id":"21NJDEP1-01411800","source":"Other","latitude":39.4477,"longitude":-75.0721}},{"type":"Point","coordinates":[-75.255,39.473],"properties":{"site_id":"21NJDEP1-01412800","source":"Other","latitude":39.4726,"longitude":-75.2554}},{"type":"Point","coordinates":[-74.8,41.307],"properties":{"site_id":"21NJDEP1-01438500","source":"Other","latitude":41.30692,"longitude":-74.8}},{"type":"Point","coordinates":[-74.815,41.2],"properties":{"site_id":"21NJDEP1-01439830","source":"Other","latitude":41.20001,"longitude":-74.8155}},{"type":"Point","coordinates":[-74.952,41.106],"properties":{"site_id":"21NJDEP1-01440000","source":"Other","latitude":41.10637,"longitude":-74.9523}},{"type":"Point","coordinates":[-75.127,40.971],"properties":{"site_id":"21NJDEP1-01442760","source":"Other","latitude":40.97101,"longitude":-75.1268}},{"type":"Point","coordinates":[-75.096,40.924],"properties":{"site_id":"21NJDEP1-01443000","source":"Other","latitude":40.9243,"longitude":-75.0956}},{"type":"Point","coordinates":[-74.755,41.106],"properties":{"site_id":"21NJDEP1-01443440","source":"Other","latitude":41.1056517,"longitude":-74.7548883}},{"type":"Point","coordinates":[-74.758,41.104],"properties":{"site_id":"21NJDEP1-01443441","source":"Other","latitude":41.10375,"longitude":-74.7581667}},{"type":"Point","coordinates":[-74.953,40.981],"properties":{"site_id":"21NJDEP1-01443500","source":"Other","latitude":40.98114,"longitude":-74.9535}},{"type":"Point","coordinates":[-74.979,40.98],"properties":{"site_id":"21NJDEP1-01443600","source":"Other","latitude":40.98,"longitude":-74.97866}},{"type":"Point","coordinates":[-74.776,40.981],"properties":{"site_id":"21NJDEP1-01445000","source":"Other","latitude":40.9807778,"longitude":-74.7765}},{"type":"Point","coordinates":[-74.841,40.921],"properties":{"site_id":"21NJDEP1-01445100","source":"Other","latitude":40.9213948,"longitude":-74.840514}},{"type":"Point","coordinates":[-74.933,40.852],"properties":{"site_id":"21NJDEP1-01445430","source":"Other","latitude":40.851661,"longitude":-74.9334085}},{"type":"Point","coordinates":[-74.978,40.831],"properties":{"site_id":"21NJDEP1-01445500","source":"Other","latitude":40.830655,"longitude":-74.9782267}},{"type":"Point","coordinates":[-75.046,40.844],"properties":{"site_id":"21NJDEP1-01446000","source":"Other","latitude":40.8435833,"longitude":-75.0462222}},{"type":"Point","coordinates":[-75.079,40.829],"properties":{"site_id":"21NJDEP1-01446400","source":"Other","latitude":40.82934,"longitude":-75.0787}},{"type":"Point","coordinates":[-74.666,40.917],"properties":{"site_id":"21NJDEP1-01455500","source":"Other","latitude":40.9170642,"longitude":-74.6657464}},{"type":"Point","coordinates":[-74.731,40.92],"properties":{"site_id":"21NJDEP1-01455700","source":"Other","latitude":40.92,"longitude":-74.731111}},{"type":"Point","coordinates":[-74.735,40.92],"properties":{"site_id":"21NJDEP1-01455801","source":"Other","latitude":40.9195433,"longitude":-74.7348867}},{"type":"Point","coordinates":[-74.842,40.813],"properties":{"site_id":"21NJDEP1-01456200","source":"Other","latitude":40.8134333,"longitude":-74.8418333}},{"type":"Point","coordinates":[-74.96,40.723],"properties":{"site_id":"21NJDEP1-01456590","source":"Other","latitude":40.7228777,"longitude":-74.959892}},{"type":"Point","coordinates":[-75.061,40.672],"properties":{"site_id":"21NJDEP1-01457000","source":"Other","latitude":40.6723233,"longitude":-75.0607283}},{"type":"Point","coordinates":[-75.089,40.655],"properties":{"site_id":"21NJDEP1-01457120","source":"Other","latitude":40.6554489,"longitude":-75.0888099}},{"type":"Point","coordinates":[-75.187,40.592],"properties":{"site_id":"21NJDEP1-01457400","source":"Other","latitude":40.59228,"longitude":-75.1866}},{"type":"Point","coordinates":[-75.19,40.594],"properties":{"site_id":"21NJDEP1-01457500","source":"Other","latitude":40.59429,"longitude":-75.1905}},{"type":"Point","coordinates":[-75.037,40.408],"properties":{"site_id":"21NJDEP1-01461000","source":"Other","latitude":40.408,"longitude":-75.0374}},{"type":"Point","coordinates":[-74.778,40.22],"properties":{"site_id":"21NJDEP1-01463500","source":"Other","latitude":40.22032,"longitude":-74.7777}},{"type":"Point","coordinates":[-74.56,40.218],"properties":{"site_id":"21NJDEP1-01463568","source":"Other","latitude":40.21844,"longitude":-74.55988}},{"type":"Point","coordinates":[-74.56,40.217],"properties":{"site_id":"21NJDEP1-01463587","source":"Other","latitude":40.21678,"longitude":-74.56015}},{"type":"Point","coordinates":[-74.617,40.258],"properties":{"site_id":"21NJDEP1-01463610","source":"Other","latitude":40.25827,"longitude":-74.6175}},{"type":"Point","coordinates":[-74.671,40.27],"properties":{"site_id":"21NJDEP1-01463620","source":"Other","latitude":40.26954,"longitude":-74.67142}},{"type":"Point","coordinates":[-74.766,40.217],"properties":{"site_id":"21NJDEP1-01464020","source":"Other","latitude":40.21721,"longitude":-74.76637}},{"type":"Point","coordinates":[-74.6,40.137],"properties":{"site_id":"21NJDEP1-01464500","source":"Other","latitude":40.1369,"longitude":-74.6003}},{"type":"Point","coordinates":[-74.677,40.167],"properties":{"site_id":"21NJDEP1-01464504","source":"Other","latitude":40.16722,"longitude":-74.6773}},{"type":"Point","coordinates":[-74.675,40.175],"properties":{"site_id":"21NJDEP1-01464522","source":"Other","latitude":40.175388,"longitude":-74.675436}},{"type":"Point","coordinates":[-74.704,40.167],"properties":{"site_id":"21NJDEP1-0146452360","source":"Other","latitude":40.1667103,"longitude":-74.7044761}},{"type":"Point","coordinates":[-74.718,39.923],"properties":{"site_id":"21NJDEP1-01465835","source":"Other","latitude":39.92322,"longitude":-74.7177}},{"type":"Point","coordinates":[-74.763,39.94],"properties":{"site_id":"21NJDEP1-01465850","source":"Other","latitude":39.9402,"longitude":-74.7631}},{"type":"Point","coordinates":[-74.791,39.947],"properties":{"site_id":"21NJDEP1-01465854","source":"Other","latitude":39.9473086,"longitude":-74.790522}},{"type":"Point","coordinates":[-74.824,39.979],"properties":{"site_id":"21NJDEP1-01465915","source":"Other","latitude":39.9791,"longitude":-74.8238}},{"type":"Point","coordinates":[-74.525,39.98],"properties":{"site_id":"21NJDEP1-01465950","source":"Other","latitude":39.97967,"longitude":-74.5253}},{"type":"Point","coordinates":[-74.58,39.968],"properties":{"site_id":"21NJDEP1-01465970","source":"Other","latitude":39.96806,"longitude":-74.57972}},{"type":"Point","coordinates":[-74.505,39.885],"properties":{"site_id":"21NJDEP1-01466500","source":"Other","latitude":39.88506,"longitude":-74.5054}},{"type":"Point","coordinates":[-74.628,39.956],"properties":{"site_id":"21NJDEP1-01466900","source":"Other","latitude":39.95634,"longitude":-74.6277}},{"type":"Point","coordinates":[-74.684,39.97],"properties":{"site_id":"21NJDEP1-01467000","source":"Other","latitude":39.97,"longitude":-74.68417}},{"type":"Point","coordinates":[-74.71,39.979],"properties":{"site_id":"21NJDEP1-01467002","source":"Other","latitude":39.9794444,"longitude":-74.709722}},{"type":"Point","coordinates":[-74.711,39.981],"properties":{"site_id":"21NJDEP1-0146700260","source":"Other","latitude":39.980669,"longitude":-74.710714}},{"type":"Point","coordinates":[-74.736,39.982],"properties":{"site_id":"21NJDEP1-01467003","source":"Other","latitude":39.9821778,"longitude":-74.7361333}},{"type":"Point","coordinates":[-74.751,39.986],"properties":{"site_id":"21NJDEP1-01467004","source":"Other","latitude":39.9858333,"longitude":-74.750833}},{"type":"Point","coordinates":[-74.782,39.992],"properties":{"site_id":"21NJDEP1-01467005","source":"Other","latitude":39.99206,"longitude":-74.7823}},{"type":"Point","coordinates":[-75.009,39.979],"properties":{"site_id":"21NJDEP1-01467072","source":"Other","latitude":39.9792,"longitude":-75.0088}},{"type":"Point","coordinates":[-74.953,39.906],"properties":{"site_id":"21NJDEP1-01467075","source":"Other","latitude":39.9060715,"longitude":-74.9525265}},{"type":"Point","coordinates":[-74.983,39.94],"properties":{"site_id":"21NJDEP1-01467080","source":"Other","latitude":39.940281,"longitude":-74.9827806}},{"type":"Point","coordinates":[-75.001,39.942],"properties":{"site_id":"21NJDEP1-01467081","source":"Other","latitude":39.9419358,"longitude":-75.0009393}},{"type":"Point","coordinates":[-75.013,39.954],"properties":{"site_id":"21NJDEP1-0146708130","source":"Other","latitude":39.9541147,"longitude":-75.013346}},{"type":"Point","coordinates":[-75.015,39.985],"properties":{"site_id":"21NJDEP1-01467082","source":"Other","latitude":39.9854056,"longitude":-75.0150083}},{"type":"Point","coordinates":[-74.982,39.829],"properties":{"site_id":"21NJDEP1-01467120","source":"Other","latitude":39.8287831,"longitude":-74.9815216}},{"type":"Point","coordinates":[-75.016,39.871],"properties":{"site_id":"21NJDEP1-01467140","source":"Other","latitude":39.870753,"longitude":-75.0161784}},{"type":"Point","coordinates":[-75.022,39.903],"properties":{"site_id":"21NJDEP1-01467150","source":"Other","latitude":39.9032,"longitude":-75.0218}},{"type":"Point","coordinates":[-75.025,39.909],"properties":{"site_id":"21NJDEP1-01467181","source":"Other","latitude":39.9086026,"longitude":-75.0254803}},{"type":"Point","coordinates":[-75.084,39.927],"properties":{"site_id":"21NJDEP1-01467190","source":"Other","latitude":39.9267,"longitude":-75.0839}},{"type":"Point","coordinates":[-75.086,39.933],"properties":{"site_id":"21NJDEP1-01467191","source":"Other","latitude":39.9333889,"longitude":-75.0863472}},{"type":"Point","coordinates":[-74.525,39.98],"properties":{"site_id":"21NJDEP1-01469590","source":"Other","latitude":39.9797,"longitude":-74.5253}},{"type":"Point","coordinates":[-75.16,39.79],"properties":{"site_id":"21NJDEP1-01475042","source":"Other","latitude":39.79,"longitude":-75.16017}},{"type":"Point","coordinates":[-75.172,39.795],"properties":{"site_id":"21NJDEP1-01475045","source":"Other","latitude":39.7952306,"longitude":-75.1718861}},{"type":"Point","coordinates":[-75.224,39.736],"properties":{"site_id":"21NJDEP1-0147710950","source":"Other","latitude":39.7363722,"longitude":-75.2240694}},{"type":"Point","coordinates":[-75.224,39.736],"properties":{"site_id":"21NJDEP1-01477110","source":"Other","latitude":39.7363587,"longitude":-75.2242376}},{"type":"Point","coordinates":[-75.259,39.74],"properties":{"site_id":"21NJDEP1-01477120","source":"Other","latitude":39.74041,"longitude":-75.2589}},{"type":"Point","coordinates":[-75.28,39.744],"properties":{"site_id":"21NJDEP1-01477125","source":"Other","latitude":39.7441944,"longitude":-75.2801833}},{"type":"Point","coordinates":[-75.356,39.801],"properties":{"site_id":"21NJDEP1-01477160","source":"Other","latitude":39.8011722,"longitude":-75.3557611}},{"type":"Point","coordinates":[-75.238,39.603],"properties":{"site_id":"21NJDEP1-01482455","source":"Other","latitude":39.602614,"longitude":-75.237686}},{"type":"Point","coordinates":[-75.33,39.644],"properties":{"site_id":"21NJDEP1-01482500","source":"Other","latitude":39.6436,"longitude":-75.3304}},{"type":"Point","coordinates":[-75.368,39.653],"properties":{"site_id":"21NJDEP1-01482520","source":"Other","latitude":39.6527596,"longitude":-75.3680552}},{"type":"Point","coordinates":[-75.296,39.591],"properties":{"site_id":"21NJDEP1-01482880","source":"Other","latitude":39.591173,"longitude":-75.296042}},{"type":"Point","coordinates":[-74.815,41.2],"properties":{"site_id":"21NJDEP1-AN0006","source":"Other","latitude":41.2000278,"longitude":-74.8155}},{"type":"Point","coordinates":[-74.877,41.157],"properties":{"site_id":"21NJDEP1-AN0007","source":"Other","latitude":41.1572222,"longitude":-74.87725}},{"type":"Point","coordinates":[-74.962,41.102],"properties":{"site_id":"21NJDEP1-AN0008","source":"Other","latitude":41.1015556,"longitude":-74.9621944}},{"type":"Point","coordinates":[-75.126,40.971],"properties":{"site_id":"21NJDEP1-AN0012","source":"Other","latitude":40.9705833,"longitude":-75.1263611}},{"type":"Point","coordinates":[-74.688,41.067],"properties":{"site_id":"21NJDEP1-AN0014","source":"Other","latitude":41.0668833,"longitude":-74.6877666}},{"type":"Point","coordinates":[-74.699,41.086],"properties":{"site_id":"21NJDEP1-AN0015","source":"Other","latitude":41.0855222,"longitude":-74.6994333}},{"type":"Point","coordinates":[-74.758,41.104],"properties":{"site_id":"21NJDEP1-AN0021","source":"Other","latitude":41.1037536,"longitude":-74.758153}},{"type":"Point","coordinates":[-74.828,41.052],"properties":{"site_id":"21NJDEP1-AN0022","source":"Other","latitude":41.0524722,"longitude":-74.8279167}},{"type":"Point","coordinates":[-74.953,40.981],"properties":{"site_id":"21NJDEP1-AN0025","source":"Other","latitude":40.9811389,"longitude":-74.9534722}},{"type":"Point","coordinates":[-74.96,40.982],"properties":{"site_id":"21NJDEP1-AN0027","source":"Other","latitude":40.9818889,"longitude":-74.9598333}},{"type":"Point","coordinates":[-75.032,40.995],"properties":{"site_id":"21NJDEP1-AN0030","source":"Other","latitude":40.9952778,"longitude":-75.0321944}},{"type":"Point","coordinates":[-75.06,40.957],"properties":{"site_id":"21NJDEP1-AN0031","source":"Other","latitude":40.9566111,"longitude":-75.0596667}},{"type":"Point","coordinates":[-75.088,40.921],"properties":{"site_id":"21NJDEP1-AN0032","source":"Other","latitude":40.9208889,"longitude":-75.0881944}},{"type":"Point","coordinates":[-75.02,40.967],"properties":{"site_id":"21NJDEP1-AN0032A","source":"Other","latitude":40.9667639,"longitude":-75.0204521}},{"type":"Point","coordinates":[-74.767,41.014],"properties":{"site_id":"21NJDEP1-AN0035","source":"Other","latitude":41.0143889,"longitude":-74.7666389}},{"type":"Point","coordinates":[-74.776,40.981],"properties":{"site_id":"21NJDEP1-AN0037","source":"Other","latitude":40.9807816,"longitude":-74.7764888}},{"type":"Point","coordinates":[-74.841,40.921],"properties":{"site_id":"21NJDEP1-AN0039","source":"Other","latitude":40.9213889,"longitude":-74.8405278}},{"type":"Point","coordinates":[-74.905,40.866],"properties":{"site_id":"21NJDEP1-AN0041","source":"Other","latitude":40.8662222,"longitude":-74.9053611}},{"type":"Point","coordinates":[-74.978,40.831],"properties":{"site_id":"21NJDEP1-AN0043","source":"Other","latitude":40.8305,"longitude":-74.9777778}},{"type":"Point","coordinates":[-74.942,40.943],"properties":{"site_id":"21NJDEP1-AN0045","source":"Other","latitude":40.9425833,"longitude":-74.9424444}},{"type":"Point","coordinates":[-74.978,40.893],"properties":{"site_id":"21NJDEP1-AN0046","source":"Other","latitude":40.8927778,"longitude":-74.9779444}},{"type":"Point","coordinates":[-75.046,40.844],"properties":{"site_id":"21NJDEP1-AN0047","source":"Other","latitude":40.8435713,"longitude":-75.046215}},{"type":"Point","coordinates":[-75.082,40.829],"properties":{"site_id":"21NJDEP1-AN0048","source":"Other","latitude":40.8293889,"longitude":-75.0821667}},{"type":"Point","coordinates":[-75.186,40.625],"properties":{"site_id":"21NJDEP1-AN0061","source":"Other","latitude":40.6249722,"longitude":-75.1857778}},{"type":"Point","coordinates":[-74.666,40.917],"properties":{"site_id":"21NJDEP1-AN0062","source":"Other","latitude":40.9170556,"longitude":-74.66575}},{"type":"Point","coordinates":[-74.713,40.902],"properties":{"site_id":"21NJDEP1-AN0063","source":"Other","latitude":40.9023333,"longitude":-74.7134722}},{"type":"Point","coordinates":[-74.732,40.921],"properties":{"site_id":"21NJDEP1-AN0064","source":"Other","latitude":40.9210833,"longitude":-74.7316667}},{"type":"Point","coordinates":[-74.823,40.833],"properties":{"site_id":"21NJDEP1-AN0067","source":"Other","latitude":40.8328333,"longitude":-74.8227778}},{"type":"Point","coordinates":[-74.831,40.83],"properties":{"site_id":"21NJDEP1-AN0068","source":"Other","latitude":40.8295,"longitude":-74.8311667}},{"type":"Point","coordinates":[-74.842,40.813],"properties":{"site_id":"21NJDEP1-AN0069","source":"Other","latitude":40.813,"longitude":-74.8416667}},{"type":"Point","coordinates":[-74.86,40.804],"properties":{"site_id":"21NJDEP1-AN0070","source":"Other","latitude":40.8044722,"longitude":-74.8604444}},{"type":"Point","coordinates":[-74.901,40.783],"properties":{"site_id":"21NJDEP1-AN0071","source":"Other","latitude":40.7834167,"longitude":-74.9007222}},{"type":"Point","coordinates":[-74.96,40.723],"properties":{"site_id":"21NJDEP1-AN0072","source":"Other","latitude":40.7230544,"longitude":-74.9599447}},{"type":"Point","coordinates":[-75.089,40.655],"properties":{"site_id":"21NJDEP1-AN0073","source":"Other","latitude":40.6554444,"longitude":-75.0888056}},{"type":"Point","coordinates":[-75.186,40.592],"properties":{"site_id":"21NJDEP1-AN0074","source":"Other","latitude":40.5922834,"longitude":-75.1862343}},{"type":"Point","coordinates":[-75.062,40.469],"properties":{"site_id":"21NJDEP1-AN0085","source":"Other","latitude":40.4694167,"longitude":-75.0621389}},{"type":"Point","coordinates":[-75.014,40.408],"properties":{"site_id":"21NJDEP1-AN0089","source":"Other","latitude":40.4078611,"longitude":-75.0141667}},{"type":"Point","coordinates":[-74.945,40.364],"properties":{"site_id":"21NJDEP1-AN0099","source":"Other","latitude":40.3639722,"longitude":-74.94525}},{"type":"Point","coordinates":[-74.822,40.243],"properties":{"site_id":"21NJDEP1-AN0107","source":"Other","latitude":40.2430556,"longitude":-74.8221111}},{"type":"Point","coordinates":[-74.477,40.212],"properties":{"site_id":"21NJDEP1-AN0108","source":"Other","latitude":40.212,"longitude":-74.4770278}},{"type":"Point","coordinates":[-74.618,40.258],"properties":{"site_id":"21NJDEP1-AN0109","source":"Other","latitude":40.2582778,"longitude":-74.6175278}},{"type":"Point","coordinates":[-74.56,40.218],"properties":{"site_id":"21NJDEP1-AN0109A","source":"Other","latitude":40.2183338,"longitude":-74.5602844}},{"type":"Point","coordinates":[-74.561,40.217],"properties":{"site_id":"21NJDEP1-AN0109B","source":"Other","latitude":40.2165986,"longitude":-74.5606886}},{"type":"Point","coordinates":[-74.739,40.236],"properties":{"site_id":"21NJDEP1-AN0116","source":"Other","latitude":40.2356944,"longitude":-74.7388056}},{"type":"Point","coordinates":[-74.769,40.217],"properties":{"site_id":"21NJDEP1-AN0118","source":"Other","latitude":40.2171381,"longitude":-74.7690866}},{"type":"Point","coordinates":[-74.711,39.981],"properties":{"site_id":"21NJDEP1-AN0151A","source":"Other","latitude":39.9806347,"longitude":-74.71108}},{"type":"Point","coordinates":[-74.859,39.997],"properties":{"site_id":"21NJDEP1-AN0176R","source":"Other","latitude":39.9973343,"longitude":-74.859053}},{"type":"Point","coordinates":[-74.824,39.979],"properties":{"site_id":"21NJDEP1-AN0176S","source":"Other","latitude":39.9790013,"longitude":-74.823774}},{"type":"Point","coordinates":[-75.086,39.681],"properties":{"site_id":"21NJDEP1-AN0726A","source":"Other","latitude":39.6810685,"longitude":-75.085523}},{"type":"Point","coordinates":[-74.696,39.976],"properties":{"site_id":"21NJDEP1-EU","source":"Other","latitude":39.9758333,"longitude":-74.695555}},{"type":"Point","coordinates":[-74.933,40.98],"properties":{"site_id":"21NJDEP1-FIBI001","source":"Other","latitude":40.9801011,"longitude":-74.9329078}},{"type":"Point","coordinates":[-74.977,40.83],"properties":{"site_id":"21NJDEP1-FIBI003","source":"Other","latitude":40.8295389,"longitude":-74.9771389}},{"type":"Point","coordinates":[-74.96,40.723],"properties":{"site_id":"21NJDEP1-FIBI005","source":"Other","latitude":40.7230944,"longitude":-74.9599306}},{"type":"Point","coordinates":[-75.046,40.843],"properties":{"site_id":"21NJDEP1-FIBI047","source":"Other","latitude":40.8434729,"longitude":-75.0461199}},{"type":"Point","coordinates":[-75.02,40.967],"properties":{"site_id":"21NJDEP1-FIBI055","source":"Other","latitude":40.9667639,"longitude":-75.0204528}},{"type":"Point","coordinates":[-74.731,40.92],"properties":{"site_id":"21NJDEP1-FIBI057","source":"Other","latitude":40.9203787,"longitude":-74.7312869}},{"type":"Point","coordinates":[-74.806,40.874],"properties":{"site_id":"21NJDEP1-FIBI058","source":"Other","latitude":40.8736327,"longitude":-74.8059855}},{"type":"Point","coordinates":[-75.025,40.689],"properties":{"site_id":"21NJDEP1-FIBI061","source":"Other","latitude":40.6894946,"longitude":-75.0254867}},{"type":"Point","coordinates":[-74.874,40.795],"properties":{"site_id":"21NJDEP1-FIBI062","source":"Other","latitude":40.7946322,"longitude":-74.8737107}},{"type":"Point","coordinates":[-74.776,40.981],"properties":{"site_id":"21NJDEP1-FIBI063","source":"Other","latitude":40.9807816,"longitude":-74.7764889}},{"type":"Point","coordinates":[-74.83,40.943],"properties":{"site_id":"21NJDEP1-FIBI064","source":"Other","latitude":40.942604,"longitude":-74.8304714}},{"type":"Point","coordinates":[-74.816,41.2],"properties":{"site_id":"21NJDEP1-FIBI066","source":"Other","latitude":41.200015,"longitude":-74.815509}},{"type":"Point","coordinates":[-74.868,41.041],"properties":{"site_id":"21NJDEP1-FIBI082","source":"Other","latitude":41.0412,"longitude":-74.8685}},{"type":"Point","coordinates":[-74.469,39.976],"properties":{"site_id":"21NJDEP1-NJW04459-110-O","source":"Other","latitude":39.9760643,"longitude":-74.4694682}},{"type":"Point","coordinates":[-74.532,40.067],"properties":{"site_id":"21NJDEP1-NJW04459-115-O","source":"Other","latitude":40.0667837,"longitude":-74.5321785}},{"type":"Point","coordinates":[-75.235,39.446],"properties":{"site_id":"21NJDEP1-NJW04459-120-O","source":"Other","latitude":39.4464433,"longitude":-75.234961}},{"type":"Point","coordinates":[-74.958,39.915],"properties":{"site_id":"21NJDEP1-TMDL 1805","source":"Other","latitude":39.9147504,"longitude":-74.9577628}},{"type":"Point","coordinates":[-74.697,41.372],"properties":{"site_id":"21NYDECA-14010001","source":"Other","latitude":41.3719444,"longitude":-74.6969444}},{"type":"Point","coordinates":[-75.061,41.765],"properties":{"site_id":"21NYDECA-14010053","source":"Other","latitude":41.7647222,"longitude":-75.0611111}},{"type":"Point","coordinates":[-75.056,41.764],"properties":{"site_id":"21NYDECA-14011301","source":"Other","latitude":41.7644444,"longitude":-75.0558333}},{"type":"Point","coordinates":[-74.685,41.361],"properties":{"site_id":"21NYDECA-14021001","source":"Other","latitude":41.3611111,"longitude":-74.6852778}},{"type":"Point","coordinates":[-74.599,41.76],"properties":{"site_id":"21NYDECA-14021037","source":"Other","latitude":41.7597222,"longitude":-74.5994444}},{"type":"Point","coordinates":[-74.589,41.454],"properties":{"site_id":"21NYDECA-14022101","source":"Other","latitude":41.4538888,"longitude":-74.5888888}},{"type":"Point","coordinates":[-75.275,41.953],"properties":{"site_id":"21NYDECA-14031001","source":"Other","latitude":41.9527778,"longitude":-75.2752778}},{"type":"Point","coordinates":[-74.621,42.161],"properties":{"site_id":"21NYDECA-14031057","source":"Other","latitude":42.1611111,"longitude":-74.6208333}},{"type":"Point","coordinates":[-74.98,41.946],"properties":{"site_id":"21NYDECA-14032110","source":"Other","latitude":41.9463888,"longitude":-74.9797222}},{"type":"Point","coordinates":[-74.915,41.93],"properties":{"site_id":"21NYDECA-14033101","source":"Other","latitude":41.9302777,"longitude":-74.9152777}},{"type":"Point","coordinates":[-75.292,41.953],"properties":{"site_id":"21NYDECA-14041001","source":"Other","latitude":41.9525,"longitude":-75.2916667}},{"type":"Point","coordinates":[-74.912,42.278],"properties":{"site_id":"21NYDECA-14041060","source":"Other","latitude":42.2783333,"longitude":-74.9125}},{"type":"Point","coordinates":[-74.928,42.258],"properties":{"site_id":"21NYDECA-14042201","source":"Other","latitude":42.2575,"longitude":-74.9277777}},{"type":"Point","coordinates":[-74.697,41.372],"properties":{"site_id":"21NYDECA_WQX-14010001","source":"Other","latitude":41.3719444,"longitude":-74.6969444}},{"type":"Point","coordinates":[-75.061,41.765],"properties":{"site_id":"21NYDECA_WQX-14010053","source":"Other","latitude":41.7647222,"longitude":-75.0611111}},{"type":"Point","coordinates":[-75.058,41.765],"properties":{"site_id":"21NYDECA_WQX-14011301","source":"Other","latitude":41.76493,"longitude":-75.05814}},{"type":"Point","coordinates":[-75.009,41.571],"properties":{"site_id":"21NYDECA_WQX-14012400","source":"Other","latitude":41.57109,"longitude":-75.00911}},{"type":"Point","coordinates":[-74.572,41.485],"properties":{"site_id":"21NYDECA_WQX-14022104","source":"Other","latitude":41.48468,"longitude":-74.57228}},{"type":"Point","coordinates":[-74.575,41.92],"properties":{"site_id":"21NYDECA_WQX-14022200","source":"Other","latitude":41.92046,"longitude":-74.5748}},{"type":"Point","coordinates":[-74.572,41.919],"properties":{"site_id":"21NYDECA_WQX-14022300","source":"Other","latitude":41.91885,"longitude":-74.57238}},{"type":"Point","coordinates":[-74.667,42.373],"properties":{"site_id":"21NYDECA_WQX-14041077","source":"Other","latitude":42.37317,"longitude":-74.667}},{"type":"Point","coordinates":[-74.928,42.258],"properties":{"site_id":"21NYDECA_WQX-14042201","source":"Other","latitude":42.2575,"longitude":-74.9277777}},{"type":"Point","coordinates":[-75.313,39.866],"properties":{"site_id":"21PA_WQX-DRBC422088","source":"Other","latitude":39.8661,"longitude":-75.3133}},{"type":"Point","coordinates":[-75.086,39.999],"properties":{"site_id":"21PA_WQX-DRBC422091","source":"Other","latitude":39.9986,"longitude":-75.0861}},{"type":"Point","coordinates":[-75.36,39.845],"properties":{"site_id":"21PA_WQX-DRBC422094","source":"Other","latitude":39.8447,"longitude":-75.36}},{"type":"Point","coordinates":[-75.018,40.033],"properties":{"site_id":"21PA_WQX-DRBC422097","source":"Other","latitude":40.0333,"longitude":-75.0181}},{"type":"Point","coordinates":[-74.982,40.054],"properties":{"site_id":"21PA_WQX-DRBC422100","source":"Other","latitude":40.0536,"longitude":-74.9819}},{"type":"Point","coordinates":[-74.913,40.094],"properties":{"site_id":"21PA_WQX-DRBC422103","source":"Other","latitude":40.0936,"longitude":-74.9133}},{"type":"Point","coordinates":[-75.197,40.008],"properties":{"site_id":"21PA_WQX-DRBC422110","source":"Other","latitude":40.0083,"longitude":-75.1972}},{"type":"Point","coordinates":[-75.181,39.953],"properties":{"site_id":"21PA_WQX-DRBC422111","source":"Other","latitude":39.9528,"longitude":-75.1808}},{"type":"Point","coordinates":[-75.324,39.863],"properties":{"site_id":"21PA_WQX-DRBC422115","source":"Other","latitude":39.8631,"longitude":-75.3242}},{"type":"Point","coordinates":[-75.346,39.853],"properties":{"site_id":"21PA_WQX-DRBC422120","source":"Other","latitude":39.8533,"longitude":-75.3461}},{"type":"Point","coordinates":[-74.778,40.219],"properties":{"site_id":"21PA_WQX-WQN0101","source":"Other","latitude":40.2192,"longitude":-74.7783}},{"type":"Point","coordinates":[-74.698,41.371],"properties":{"site_id":"21PA_WQX-WQN0103","source":"Other","latitude":41.3711,"longitude":-74.6978}},{"type":"Point","coordinates":[-75.292,41.952],"properties":{"site_id":"21PA_WQX-WQN0104","source":"Other","latitude":41.9522,"longitude":-75.2919}},{"type":"Point","coordinates":[-75.593,39.869],"properties":{"site_id":"21PA_WQX-WQN0105","source":"Other","latitude":39.8694,"longitude":-75.5931}},{"type":"Point","coordinates":[-75.197,40.008],"properties":{"site_id":"21PA_WQX-WQN0110","source":"Other","latitude":40.0083,"longitude":-75.1972}},{"type":"Point","coordinates":[-75.651,40.242],"properties":{"site_id":"21PA_WQX-WQN0111","source":"Other","latitude":40.2419,"longitude":-75.6511}},{"type":"Point","coordinates":[-75.998,40.522],"properties":{"site_id":"21PA_WQX-WQN0113","source":"Other","latitude":40.5219,"longitude":-75.9978}},{"type":"Point","coordinates":[-75.207,40.015],"properties":{"site_id":"21PA_WQX-WQN0115","source":"Other","latitude":40.0147,"longitude":-75.2067}},{"type":"Point","coordinates":[-75.456,40.153],"properties":{"site_id":"21PA_WQX-WQN0116","source":"Other","latitude":40.1531,"longitude":-75.4556}},{"type":"Point","coordinates":[-75.968,40.363],"properties":{"site_id":"21PA_WQX-WQN0117","source":"Other","latitude":40.3628,"longitude":-75.9678}},{"type":"Point","coordinates":[-74.957,40.174],"properties":{"site_id":"21PA_WQX-WQN0121","source":"Other","latitude":40.1742,"longitude":-74.9572}},{"type":"Point","coordinates":[-75.238,40.667],"properties":{"site_id":"21PA_WQX-WQN0123","source":"Other","latitude":40.6667,"longitude":-75.2383}},{"type":"Point","coordinates":[-75.602,40.753],"properties":{"site_id":"21PA_WQX-WQN0125","source":"Other","latitude":40.7531,"longitude":-75.6025}},{"type":"Point","coordinates":[-75.626,41.13],"properties":{"site_id":"21PA_WQX-WQN0126","source":"Other","latitude":41.1303,"longitude":-75.6258}},{"type":"Point","coordinates":[-75.462,40.602],"properties":{"site_id":"21PA_WQX-WQN0130","source":"Other","latitude":40.6019,"longitude":-75.4622}},{"type":"Point","coordinates":[-75.137,40.993],"properties":{"site_id":"21PA_WQX-WQN0137","source":"Other","latitude":40.9933,"longitude":-75.1375}},{"type":"Point","coordinates":[-75.211,41.035],"properties":{"site_id":"21PA_WQX-WQN0138","source":"Other","latitude":41.035,"longitude":-75.2108}},{"type":"Point","coordinates":[-75.037,41.088],"properties":{"site_id":"21PA_WQX-WQN0139","source":"Other","latitude":41.0883,"longitude":-75.0375}},{"type":"Point","coordinates":[-75.34,41.336],"properties":{"site_id":"21PA_WQX-WQN0141","source":"Other","latitude":41.3361,"longitude":-75.34}},{"type":"Point","coordinates":[-75.605,41.084],"properties":{"site_id":"21PA_WQX-WQN0142","source":"Other","latitude":41.0844,"longitude":-75.6053}},{"type":"Point","coordinates":[-74.991,41.487],"properties":{"site_id":"21PA_WQX-WQN0147","source":"Other","latitude":41.4867,"longitude":-74.9914}},{"type":"Point","coordinates":[-75.116,40.789],"properties":{"site_id":"21PA_WQX-WQN0148","source":"Other","latitude":40.7892,"longitude":-75.1164}},{"type":"Point","coordinates":[-75.773,39.744],"properties":{"site_id":"21PA_WQX-WQN0149","source":"Other","latitude":39.7444,"longitude":-75.7731}},{"type":"Point","coordinates":[-75.691,39.816],"properties":{"site_id":"21PA_WQX-WQN0150","source":"Other","latitude":39.8161,"longitude":-75.6914}},{"type":"Point","coordinates":[-75.456,40.081],"properties":{"site_id":"21PA_WQX-WQN0154","source":"Other","latitude":40.0811,"longitude":-75.4564}},{"type":"Point","coordinates":[-75.691,40.171],"properties":{"site_id":"21PA_WQX-WQN0156","source":"Other","latitude":40.1714,"longitude":-75.6906}},{"type":"Point","coordinates":[-75.735,40.409],"properties":{"site_id":"21PA_WQX-WQN0178","source":"Other","latitude":40.4094,"longitude":-75.735}},{"type":"Point","coordinates":[-75.406,39.807],"properties":{"site_id":"21PA_WQX-WQN0182","source":"Other","latitude":39.8069,"longitude":-75.4064}},{"type":"Point","coordinates":[-75.288,41.661],"properties":{"site_id":"21PA_WQX-WQN0183","source":"Other","latitude":41.6614,"longitude":-75.2881}},{"type":"Point","coordinates":[-75.062,41.764],"properties":{"site_id":"21PA_WQX-WQN0185","source":"Other","latitude":41.7644,"longitude":-75.0619}},{"type":"Point","coordinates":[-75.603,41.162],"properties":{"site_id":"21PA_WQX-WQN0190","source":"Other","latitude":41.1617,"longitude":-75.6028}},{"type":"Point","coordinates":[-75.583,40.942],"properties":{"site_id":"21PA_WQX-WQN0191","source":"Other","latitude":40.9419,"longitude":-75.5828}},{"type":"Point","coordinates":[-75.22,40.124],"properties":{"site_id":"21PA_WQX-WQN0193","source":"Other","latitude":40.1239,"longitude":-75.2203}},{"type":"Point","coordinates":[-75.085,40.829],"properties":{"site_id":"21PA_WQX-WQN0194","source":"Other","latitude":40.8289,"longitude":-75.0847}},{"type":"Point","coordinates":[-75.696,40.174],"properties":{"site_id":"21PA_WQX-WQN0195","source":"Other","latitude":40.1736,"longitude":-75.6958}},{"type":"Point","coordinates":[-75.614,40.405],"properties":{"site_id":"21PA_WQX-WQN0196","source":"Other","latitude":40.405,"longitude":-75.6136}},{"type":"Point","coordinates":[-75.282,41.653],"properties":{"site_id":"21PA_WQX-WQN0336","source":"Other","latitude":41.6531,"longitude":-75.2819}},{"type":"Point","coordinates":[-75.553,39.513],"properties":{"site_id":"31DELRBC-091002","source":"Other","latitude":39.5127778,"longitude":-75.5533333}},{"type":"Point","coordinates":[-75.547,39.655],"properties":{"site_id":"31DELRBC-091008","source":"Other","latitude":39.6547222,"longitude":-75.5466667}},{"type":"Point","coordinates":[-75.265,39.851],"properties":{"site_id":"31DELRBC-332052","source":"Other","latitude":39.8505556,"longitude":-75.2647222}},{"type":"Point","coordinates":[-74.753,40.183],"properties":{"site_id":"31DELRBC-332068","source":"Other","latitude":40.1833333,"longitude":-74.7527778}},{"type":"Point","coordinates":[-75.338,39.847],"properties":{"site_id":"31DELRBC-892062","source":"Other","latitude":39.8466667,"longitude":-75.3383333}},{"type":"Point","coordinates":[-75.179,39.882],"properties":{"site_id":"31DELRBC-892065","source":"Other","latitude":39.8816667,"longitude":-75.1788889}},{"type":"Point","coordinates":[-75.067,39.984],"properties":{"site_id":"31DELRBC-892070","source":"Other","latitude":39.9844444,"longitude":-75.0675}},{"type":"Point","coordinates":[-75.137,39.953],"properties":{"site_id":"31DELRBC-892071","source":"Other","latitude":39.9527778,"longitude":-75.1372222}},{"type":"Point","coordinates":[-74.989,40.04],"properties":{"site_id":"31DELRBC-892077","source":"Other","latitude":40.04,"longitude":-74.9888889}},{"type":"Point","coordinates":[-74.87,40.081],"properties":{"site_id":"31DELRBC-892080","source":"Other","latitude":40.0811111,"longitude":-74.87}},{"type":"Point","coordinates":[-75.553,39.513],"properties":{"site_id":"31DELRBC_WQX-091002","source":"Other","latitude":39.512777,"longitude":-75.553444}},{"type":"Point","coordinates":[-75.547,39.655],"properties":{"site_id":"31DELRBC_WQX-091008","source":"Other","latitude":39.654722,"longitude":-75.546777}},{"type":"Point","coordinates":[-74.815,40.128],"properties":{"site_id":"31DELRBC_WQX-332064","source":"Other","latitude":40.127648,"longitude":-74.815065}},{"type":"Point","coordinates":[-74.735,40.174],"properties":{"site_id":"31DELRBC_WQX-332068","source":"Other","latitude":40.174465,"longitude":-74.734848}},{"type":"Point","coordinates":[-75.33,39.849],"properties":{"site_id":"31DELRBC_WQX-892062","source":"Other","latitude":39.849139,"longitude":-75.329628}},{"type":"Point","coordinates":[-75.172,39.881],"properties":{"site_id":"31DELRBC_WQX-892065","source":"Other","latitude":39.880737,"longitude":-75.172034}},{"type":"Point","coordinates":[-75.067,39.985],"properties":{"site_id":"31DELRBC_WQX-892070","source":"Other","latitude":39.985324,"longitude":-75.066565}},{"type":"Point","coordinates":[-75.137,39.953],"properties":{"site_id":"31DELRBC_WQX-892071","source":"Other","latitude":39.953309,"longitude":-75.136832}},{"type":"Point","coordinates":[-74.988,40.04],"properties":{"site_id":"31DELRBC_WQX-892077","source":"Other","latitude":40.040161,"longitude":-74.98813}},{"type":"Point","coordinates":[-74.87,40.082],"properties":{"site_id":"31DELRBC_WQX-892080","source":"Other","latitude":40.081534,"longitude":-74.869559}},{"type":"Point","coordinates":[-75.055,39.924],"properties":{"site_id":"31DELRBC_WQX-Cooper River at Cuthbert Blvd","source":"Other","latitude":39.924013,"longitude":-75.055116}},{"type":"Point","coordinates":[-75.111,39.951],"properties":{"site_id":"31DELRBC_WQX-Cooper River near mouth","source":"Other","latitude":39.951315,"longitude":-75.110541}},{"type":"Point","coordinates":[-74.718,40.15],"properties":{"site_id":"31DELRBC_WQX-Crosswicks Creek near mouth","source":"Other","latitude":40.149916,"longitude":-74.7177}},{"type":"Point","coordinates":[-75.231,39.842],"properties":{"site_id":"31DELRBC_WQX-Mantua Creek near mouth","source":"Other","latitude":39.842403,"longitude":-75.230833}},{"type":"Point","coordinates":[-75.053,39.992],"properties":{"site_id":"31DELRBC_WQX-Pennsauken Creek near mouth","source":"Other","latitude":39.991916,"longitude":-75.0529}},{"type":"Point","coordinates":[-75.356,39.801],"properties":{"site_id":"31DELRBC_WQX-Raccoon Creek at Route 130","source":"Other","latitude":39.801021,"longitude":-75.355663}},{"type":"Point","coordinates":[-74.962,40.044],"properties":{"site_id":"31DELRBC_WQX-Rancocas Creek near mouth","source":"Other","latitude":40.044366,"longitude":-74.961616}},{"type":"Point","coordinates":[-75.477,39.578],"properties":{"site_id":"31DELRBC_WQX-Salem River at Route 49","source":"Other","latitude":39.577596,"longitude":-75.477076}},{"type":"Point","coordinates":[-74.777,40.22],"properties":{"site_id":"31DRBCSP-DRBCNJ0001","source":"Other","latitude":40.22,"longitude":-74.7775}},{"type":"Point","coordinates":[-74.854,40.278],"properties":{"site_id":"31DRBCSP-DRBCNJ0003","source":"Other","latitude":40.2780556,"longitude":-74.8538889}},{"type":"Point","coordinates":[-74.868,40.296],"properties":{"site_id":"31DRBCSP-DRBCNJ0004","source":"Other","latitude":40.2955556,"longitude":-74.8683333}},{"type":"Point","coordinates":[-74.885,40.311],"properties":{"site_id":"31DRBCSP-DRBCNJ0005","source":"Other","latitude":40.3105556,"longitude":-74.8852778}},{"type":"Point","coordinates":[-74.946,40.36],"properties":{"site_id":"31DRBCSP-DRBCNJ0007","source":"Other","latitude":40.3597222,"longitude":-74.9458333}},{"type":"Point","coordinates":[-74.948,40.366],"properties":{"site_id":"31DRBCSP-DRBCNJ0009","source":"Other","latitude":40.3661111,"longitude":-74.9483333}},{"type":"Point","coordinates":[-74.98,40.403],"properties":{"site_id":"31DRBCSP-DRBCNJ0011","source":"Other","latitude":40.4033333,"longitude":-74.9797222}},{"type":"Point","coordinates":[-75.037,40.408],"properties":{"site_id":"31DRBCSP-DRBCNJ0014","source":"Other","latitude":40.4077778,"longitude":-75.0375}},{"type":"Point","coordinates":[-75.069,40.458],"properties":{"site_id":"31DRBCSP-DRBCNJ0015","source":"Other","latitude":40.4575,"longitude":-75.0686111}},{"type":"Point","coordinates":[-75.062,40.469],"properties":{"site_id":"31DRBCSP-DRBCNJ0016","source":"Other","latitude":40.4694444,"longitude":-75.0625}},{"type":"Point","coordinates":[-75.064,40.507],"properties":{"site_id":"31DRBCSP-DRBCNJ0018","source":"Other","latitude":40.5065972,"longitude":-75.0637194}},{"type":"Point","coordinates":[-75.065,40.518],"properties":{"site_id":"31DRBCSP-DRBCNJ0021","source":"Other","latitude":40.5177778,"longitude":-75.0647222}},{"type":"Point","coordinates":[-75.099,40.567],"properties":{"site_id":"31DRBCSP-DRBCNJ0024","source":"Other","latitude":40.5666667,"longitude":-75.0986111}},{"type":"Point","coordinates":[-75.187,40.593],"properties":{"site_id":"31DRBCSP-DRBCNJ0025","source":"Other","latitude":40.5925,"longitude":-75.1866667}},{"type":"Point","coordinates":[-75.191,40.594],"properties":{"site_id":"31DRBCSP-DRBCNJ0026","source":"Other","latitude":40.5941667,"longitude":-75.1905556}},{"type":"Point","coordinates":[-75.186,40.625],"properties":{"site_id":"31DRBCSP-DRBCNJ0027","source":"Other","latitude":40.6247222,"longitude":-75.1861111}},{"type":"Point","coordinates":[-75.204,40.691],"properties":{"site_id":"31DRBCSP-DRBCNJ0029","source":"Other","latitude":40.6911111,"longitude":-75.2038889}},{"type":"Point","coordinates":[-75.083,40.829],"properties":{"site_id":"31DRBCSP-DRBCNJ0032","source":"Other","latitude":40.8288889,"longitude":-75.0827083}},{"type":"Point","coordinates":[-75.061,40.834],"properties":{"site_id":"31DRBCSP-DRBCNJ0033","source":"Other","latitude":40.8341667,"longitude":-75.0611111}},{"type":"Point","coordinates":[-75.084,40.829],"properties":{"site_id":"31DRBCSP-DRBCNJ0034","source":"Other","latitude":40.8288889,"longitude":-75.0844444}},{"type":"Point","coordinates":[-75.088,40.921],"properties":{"site_id":"31DRBCSP-DRBCNJ0036","source":"Other","latitude":40.9208333,"longitude":-75.0883333}},{"type":"Point","coordinates":[-75.096,40.924],"properties":{"site_id":"31DRBCSP-DRBCNJ0037","source":"Other","latitude":40.9241667,"longitude":-75.0958333}},{"type":"Point","coordinates":[-75.127,40.971],"properties":{"site_id":"31DRBCSP-DRBCNJ0038","source":"Other","latitude":40.9705556,"longitude":-75.1269444}},{"type":"Point","coordinates":[-74.767,40.218],"properties":{"site_id":"31DRBCSP-DRBCNJ1338","source":"Other","latitude":40.2175,"longitude":-74.7675}},{"type":"Point","coordinates":[-74.819,40.239],"properties":{"site_id":"31DRBCSP-DRBCNJ1369","source":"Other","latitude":40.2394444,"longitude":-74.8188333}},{"type":"Point","coordinates":[-74.778,40.22],"properties":{"site_id":"31DRBCSP-DRBCNJPAC01","source":"Other","latitude":40.2197222,"longitude":-74.7783333}},{"type":"Point","coordinates":[-74.869,40.295],"properties":{"site_id":"31DRBCSP-DRBCNJPAC02","source":"Other","latitude":40.2952778,"longitude":-74.8688889}},{"type":"Point","coordinates":[-75.038,40.408],"properties":{"site_id":"31DRBCSP-DRBCNJPAC04","source":"Other","latitude":40.4075,"longitude":-75.0377778}},{"type":"Point","coordinates":[-75.099,40.566],"properties":{"site_id":"31DRBCSP-DRBCNJPAC06","source":"Other","latitude":40.5663889,"longitude":-75.0988889}},{"type":"Point","coordinates":[-75.191,40.594],"properties":{"site_id":"31DRBCSP-DRBCNJPAC07","source":"Other","latitude":40.5938889,"longitude":-75.1911111}},{"type":"Point","coordinates":[-75.204,40.691],"properties":{"site_id":"31DRBCSP-DRBCNJPAC08","source":"Other","latitude":40.6911111,"longitude":-75.2041667}},{"type":"Point","coordinates":[-75.085,40.829],"properties":{"site_id":"31DRBCSP-DRBCNJPAC09","source":"Other","latitude":40.8288889,"longitude":-75.085}},{"type":"Point","coordinates":[-75.096,40.924],"properties":{"site_id":"31DRBCSP-DRBCNJPAC10","source":"Other","latitude":40.9241667,"longitude":-75.0961111}},{"type":"Point","coordinates":[-74.949,40.366],"properties":{"site_id":"31DRBCSP-DRBCNJPAC11","source":"Other","latitude":40.3658333,"longitude":-74.9491667}},{"type":"Point","coordinates":[-74.779,40.219],"properties":{"site_id":"31DRBCSP-DRBCPA0001","source":"Other","latitude":40.2186111,"longitude":-74.7791667}},{"type":"Point","coordinates":[-74.837,40.245],"properties":{"site_id":"31DRBCSP-DRBCPA0002","source":"Other","latitude":40.245,"longitude":-74.8369444}},{"type":"Point","coordinates":[-74.825,40.24],"properties":{"site_id":"31DRBCSP-DRBCPA0004","source":"Other","latitude":40.2402778,"longitude":-74.8247222}},{"type":"Point","coordinates":[-74.857,40.268],"properties":{"site_id":"31DRBCSP-DRBCPA0005","source":"Other","latitude":40.2675,"longitude":-74.8569444}},{"type":"Point","coordinates":[-74.869,40.295],"properties":{"site_id":"31DRBCSP-DRBCPA0006","source":"Other","latitude":40.295,"longitude":-74.8694444}},{"type":"Point","coordinates":[-74.946,40.345],"properties":{"site_id":"31DRBCSP-DRBCPA0008","source":"Other","latitude":40.3452778,"longitude":-74.9458333}},{"type":"Point","coordinates":[-74.951,40.366],"properties":{"site_id":"31DRBCSP-DRBCPA0010","source":"Other","latitude":40.3655556,"longitude":-74.9505556}},{"type":"Point","coordinates":[-74.962,40.386],"properties":{"site_id":"31DRBCSP-DRBCPA0011","source":"Other","latitude":40.3858333,"longitude":-74.9620833}},{"type":"Point","coordinates":[-74.98,40.402],"properties":{"site_id":"31DRBCSP-DRBCPA0012","source":"Other","latitude":40.4019444,"longitude":-74.98}},{"type":"Point","coordinates":[-75.038,40.407],"properties":{"site_id":"31DRBCSP-DRBCPA0013","source":"Other","latitude":40.4072222,"longitude":-75.0380556}},{"type":"Point","coordinates":[-75.067,40.423],"properties":{"site_id":"31DRBCSP-DRBCPA0015","source":"Other","latitude":40.4230556,"longitude":-75.0666667}},{"type":"Point","coordinates":[-75.042,40.408],"properties":{"site_id":"31DRBCSP-DRBCPA0016","source":"Other","latitude":40.4075,"longitude":-75.0416667}},{"type":"Point","coordinates":[-75.066,40.518],"properties":{"site_id":"31DRBCSP-DRBCPA0018","source":"Other","latitude":40.5177778,"longitude":-75.0658333}},{"type":"Point","coordinates":[-75.099,40.566],"properties":{"site_id":"31DRBCSP-DRBCPA0019","source":"Other","latitude":40.5655556,"longitude":-75.0991667}},{"type":"Point","coordinates":[-75.192,40.593],"properties":{"site_id":"31DRBCSP-DRBCPA0023","source":"Other","latitude":40.5933333,"longitude":-75.1916667}},{"type":"Point","coordinates":[-75.202,40.619],"properties":{"site_id":"31DRBCSP-DRBCPA0024","source":"Other","latitude":40.6186111,"longitude":-75.2022222}},{"type":"Point","coordinates":[-75.184,40.668],"properties":{"site_id":"31DRBCSP-DRBCPA0025","source":"Other","latitude":40.6680556,"longitude":-75.1838889}},{"type":"Point","coordinates":[-75.208,40.687],"properties":{"site_id":"31DRBCSP-DRBCPA0026","source":"Other","latitude":40.6869444,"longitude":-75.2083333}},{"type":"Point","coordinates":[-75.205,40.691],"properties":{"site_id":"31DRBCSP-DRBCPA0027","source":"Other","latitude":40.6911111,"longitude":-75.2047222}},{"type":"Point","coordinates":[-75.206,40.695],"properties":{"site_id":"31DRBCSP-DRBCPA0028","source":"Other","latitude":40.6952778,"longitude":-75.2061111}},{"type":"Point","coordinates":[-75.192,40.717],"properties":{"site_id":"31DRBCSP-DRBCPA0029","source":"Other","latitude":40.7172222,"longitude":-75.1925}},{"type":"Point","coordinates":[-75.188,40.758],"properties":{"site_id":"31DRBCSP-DRBCPA0030","source":"Other","latitude":40.7580556,"longitude":-75.1883333}},{"type":"Point","coordinates":[-75.115,40.79],"properties":{"site_id":"31DRBCSP-DRBCPA0032","source":"Other","latitude":40.79,"longitude":-75.1152778}},{"type":"Point","coordinates":[-75.086,40.829],"properties":{"site_id":"31DRBCSP-DRBCPA0033","source":"Other","latitude":40.8286111,"longitude":-75.0855556}},{"type":"Point","coordinates":[-75.096,40.924],"properties":{"site_id":"31DRBCSP-DRBCPA0036","source":"Other","latitude":40.9238889,"longitude":-75.0963889}},{"type":"Point","coordinates":[-74.819,40.239],"properties":{"site_id":"31DRBCSP-DRBCPA1370","source":"Other","latitude":40.2391667,"longitude":-74.8194444}},{"type":"Point","coordinates":[-75.163,38.79],"properties":{"site_id":"CMP_WQX-BR01","source":"Other","latitude":38.7904167,"longitude":-75.16345}},{"type":"Point","coordinates":[-74.778,40.22],"properties":{"site_id":"DRBC-1343 ICP","source":"Other","latitude":40.22032,"longitude":-74.7777}},{"type":"Point","coordinates":[-74.869,40.295],"properties":{"site_id":"DRBC-1418 ICP","source":"Other","latitude":40.295278,"longitude":-74.868889}},{"type":"Point","coordinates":[-74.949,40.366],"properties":{"site_id":"DRBC-1487 ICP","source":"Other","latitude":40.36583,"longitude":-74.94917}},{"type":"Point","coordinates":[-75.038,40.408],"properties":{"site_id":"DRBC-1554 ICP","source":"Other","latitude":40.4075,"longitude":-75.03778}},{"type":"Point","coordinates":[-75.042,40.408],"properties":{"site_id":"DRBC-1556 BCP","source":"Other","latitude":40.4076,"longitude":-75.0416}},{"type":"Point","coordinates":[-75.067,40.423],"properties":{"site_id":"DRBC-1570 BCP","source":"Other","latitude":40.42306,"longitude":-75.06667}},{"type":"Point","coordinates":[-75.099,40.567],"properties":{"site_id":"DRBC-1677 ICP","source":"Other","latitude":40.566667,"longitude":-75.098611}},{"type":"Point","coordinates":[-75.187,40.593],"properties":{"site_id":"DRBC-1746 BCP","source":"Other","latitude":40.5925,"longitude":-75.18667}},{"type":"Point","coordinates":[-75.191,40.594],"properties":{"site_id":"DRBC-1748 ICP","source":"Other","latitude":40.59389,"longitude":-75.19111}},{"type":"Point","coordinates":[-75.186,40.625],"properties":{"site_id":"DRBC-1774 BCP","source":"Other","latitude":40.62472,"longitude":-75.18611}},{"type":"Point","coordinates":[-75.237,40.669],"properties":{"site_id":"DRBC-1837 BCP","source":"Other","latitude":40.66917,"longitude":-75.23667}},{"type":"Point","coordinates":[-75.204,40.691],"properties":{"site_id":"DRBC-1838 ICP","source":"Other","latitude":40.69111,"longitude":-75.20417}},{"type":"Point","coordinates":[-75.206,40.696],"properties":{"site_id":"DRBC-1841 BCP","source":"Other","latitude":40.695767,"longitude":-75.205612}},{"type":"Point","coordinates":[-75.188,40.758],"properties":{"site_id":"DRBC-1891 ICP","source":"Other","latitude":40.758252,"longitude":-75.187719}},{"type":"Point","coordinates":[-75.061,40.834],"properties":{"site_id":"DRBC-1978 BCP","source":"Other","latitude":40.83417,"longitude":-75.06111}},{"type":"Point","coordinates":[-75.085,40.829],"properties":{"site_id":"DRBC-1978 ICP","source":"Other","latitude":40.82889,"longitude":-75.085}},{"type":"Point","coordinates":[-75.088,40.921],"properties":{"site_id":"DRBC-2070 BCP","source":"Other","latitude":40.92083,"longitude":-75.08833}},{"type":"Point","coordinates":[-75.096,40.924],"properties":{"site_id":"DRBC-2074 ICP","source":"Other","latitude":40.92417,"longitude":-75.09611}},{"type":"Point","coordinates":[-75.138,40.993],"properties":{"site_id":"DRBC-2130A BCP","source":"Other","latitude":40.99349,"longitude":-75.13761}},{"type":"Point","coordinates":[-75.05,41.029],"properties":{"site_id":"DRBC-2184 ICP","source":"Other","latitude":41.029409,"longitude":-75.049839}},{"type":"Point","coordinates":[-74.956,41.105],"properties":{"site_id":"DRBC-2251 BCP","source":"Other","latitude":41.10487,"longitude":-74.95588}},{"type":"Point","coordinates":[-74.953,41.106],"properties":{"site_id":"DRBC-2253 BCP","source":"Other","latitude":41.106101,"longitude":-74.952504}},{"type":"Point","coordinates":[-74.846,41.19],"properties":{"site_id":"DRBC-2253A BCP","source":"Other","latitude":41.19,"longitude":-74.845833}},{"type":"Point","coordinates":[-74.847,41.19],"properties":{"site_id":"DRBC-2253B BCP","source":"Other","latitude":41.190278,"longitude":-74.846944}},{"type":"Point","coordinates":[-75.038,41.088],"properties":{"site_id":"DRBC-2269A BCP","source":"Other","latitude":41.0882,"longitude":-75.0379}},{"type":"Point","coordinates":[-75.003,41.092],"properties":{"site_id":"DRBC-2269A2 MCP","source":"Other","latitude":41.09166,"longitude":-75.00283}},{"type":"Point","coordinates":[-74.983,41.107],"properties":{"site_id":"DRBC-2281 ICP","source":"Other","latitude":41.107497,"longitude":-74.983409}},{"type":"Point","coordinates":[-74.86,41.219],"properties":{"site_id":"DRBC-2387 ICP","source":"Other","latitude":41.219426,"longitude":-74.859879}},{"type":"Point","coordinates":[-74.796,41.309],"properties":{"site_id":"DRBC-2464 ICP","source":"Other","latitude":41.309167,"longitude":-74.795556}},{"type":"Point","coordinates":[-74.758,41.344],"properties":{"site_id":"DRBC-2502 ICP","source":"Other","latitude":41.343611,"longitude":-74.757778}},{"type":"Point","coordinates":[-74.686,41.361],"properties":{"site_id":"DRBC-2536 BCP","source":"Other","latitude":41.361111,"longitude":-74.685556}},{"type":"Point","coordinates":[-74.698,41.372],"properties":{"site_id":"DRBC-2547 ICP","source":"Other","latitude":41.371667,"longitude":-74.697778}},{"type":"Point","coordinates":[-74.742,41.406],"properties":{"site_id":"DRBC-2584 ICP","source":"Other","latitude":41.406462,"longitude":-74.741772}},{"type":"Point","coordinates":[-74.756,41.427],"properties":{"site_id":"DRBC-2611 BCP","source":"Other","latitude":41.426944,"longitude":-74.756111}},{"type":"Point","coordinates":[-74.82,41.439],"properties":{"site_id":"DRBC-2655 ICP","source":"Other","latitude":41.439444,"longitude":-74.820278}},{"type":"Point","coordinates":[-74.822,41.439],"properties":{"site_id":"DRBC-2656 BCP","source":"Other","latitude":41.43889,"longitude":-74.82167}},{"type":"Point","coordinates":[-75.036,41.475],"properties":{"site_id":"DRBC-2777 BCP","source":"Other","latitude":41.475367,"longitude":-75.035771}},{"type":"Point","coordinates":[-74.986,41.509],"properties":{"site_id":"DRBC-2792 ICP","source":"Other","latitude":41.50889,"longitude":-74.98611}},{"type":"Point","coordinates":[-75.027,41.538],"properties":{"site_id":"DRBC-2825 BCP","source":"Other","latitude":41.537679,"longitude":-75.027055}},{"type":"Point","coordinates":[-75.019,41.561],"properties":{"site_id":"DRBC-2842 BCP","source":"Other","latitude":41.560683,"longitude":-75.019399}},{"type":"Point","coordinates":[-75.062,41.61],"properties":{"site_id":"DRBC-2899 ICP","source":"Other","latitude":41.609682,"longitude":-75.061835}},{"type":"Point","coordinates":[-75.065,41.673],"properties":{"site_id":"DRBC-2956 BCP","source":"Other","latitude":41.672618,"longitude":-75.064856}},{"type":"Point","coordinates":[-75.067,41.705],"properties":{"site_id":"DRBC-2984 ICP","source":"Other","latitude":41.704993,"longitude":-75.066787}},{"type":"Point","coordinates":[-75.055,41.764],"properties":{"site_id":"DRBC-3036 BCP","source":"Other","latitude":41.764454,"longitude":-75.055499}},{"type":"Point","coordinates":[-75.062,41.765],"properties":{"site_id":"DRBC-3037 ICP","source":"Other","latitude":41.764722,"longitude":-75.061667}},{"type":"Point","coordinates":[-75.114,41.824],"properties":{"site_id":"DRBC-3126 ICP","source":"Other","latitude":41.823501,"longitude":-75.113582}},{"type":"Point","coordinates":[-75.114,41.845],"properties":{"site_id":"DRBC-3135 BCP","source":"Other","latitude":41.844846,"longitude":-75.113525}},{"type":"Point","coordinates":[-75.214,41.868],"properties":{"site_id":"DRBC-3216 ICP","source":"Other","latitude":41.867739,"longitude":-75.213816}},{"type":"Point","coordinates":[-75.225,41.853],"properties":{"site_id":"DRBC-3225 BCP","source":"Other","latitude":41.853253,"longitude":-75.224885}},{"type":"Point","coordinates":[-75.277,41.953],"properties":{"site_id":"DRBC-3307 BCP","source":"Other","latitude":41.952817,"longitude":-75.277121}},{"type":"Point","coordinates":[-75.291,41.953],"properties":{"site_id":"DRBC-3312 ICP","source":"Other","latitude":41.9525,"longitude":-75.291206}},{"type":"Point","coordinates":[-75.384,42.003],"properties":{"site_id":"DRBC-3398 ICP","source":"Other","latitude":42.002798,"longitude":-75.383867}},{"type":"Point","coordinates":[-75.414,39.548],"properties":{"site_id":"DRBC-ALC","source":"Other","latitude":39.548186,"longitude":-75.414248}},{"type":"Point","coordinates":[-75.557,39.76],"properties":{"site_id":"DRBC-BRC","source":"Other","latitude":39.76035,"longitude":-75.556779}},{"type":"Point","coordinates":[-75.366,39.851],"properties":{"site_id":"DRBC-CHC","source":"Other","latitude":39.850727,"longitude":-75.365536}},{"type":"Point","coordinates":[-75.236,39.427],"properties":{"site_id":"DRBC-CHR","source":"Other","latitude":39.4273,"longitude":-75.23645}},{"type":"Point","coordinates":[-75.11,39.951],"properties":{"site_id":"DRBC-CPR","source":"Other","latitude":39.95144,"longitude":-75.10987}},{"type":"Point","coordinates":[-74.677,40.167],"properties":{"site_id":"DRBC-CRC","source":"Other","latitude":40.167144,"longitude":-74.676971}},{"type":"Point","coordinates":[-75.657,39.664],"properties":{"site_id":"DRBC-CTR","source":"Other","latitude":39.664225,"longitude":-75.656942}},{"type":"Point","coordinates":[-75.305,39.877],"properties":{"site_id":"DRBC-DBC","source":"Other","latitude":39.876547,"longitude":-75.304534}},{"type":"Point","coordinates":[-74.769,40.21],"properties":{"site_id":"DRBC-DLR","source":"Other","latitude":40.210437,"longitude":-74.768731}},{"type":"Point","coordinates":[-74.778,40.22],"properties":{"site_id":"DRBC-DRBC-1343","source":"Other","latitude":40.22032,"longitude":-74.7777}},{"type":"Point","coordinates":[-75.197,40.008],"properties":{"site_id":"DRBC-DRBC-SCHU","source":"Other","latitude":40.008405,"longitude":-75.197454}},{"type":"Point","coordinates":[-75.093,40.005],"properties":{"site_id":"DRBC-FFC","source":"Other","latitude":40.00539,"longitude":-75.092538}},{"type":"Point","coordinates":[-75.466,39.002],"properties":{"site_id":"DRBC-MDR","source":"Other","latitude":39.00198,"longitude":-75.465548}},{"type":"Point","coordinates":[-75.236,39.831],"properties":{"site_id":"DRBC-MTC","source":"Other","latitude":39.831299,"longitude":-75.236133}},{"type":"Point","coordinates":[-74.912,40.142],"properties":{"site_id":"DRBC-NHC","source":"Other","latitude":40.142205,"longitude":-74.911951}},{"type":"Point","coordinates":[-75.414,39.548],"properties":{"site_id":"DRBC-NUTR-ALLO","source":"Other","latitude":39.548457,"longitude":-75.414473}},{"type":"Point","coordinates":[-75.614,39.466],"properties":{"site_id":"DRBC-NUTR-APPO","source":"Other","latitude":39.465765,"longitude":-75.613544}},{"type":"Point","coordinates":[-74.763,40.218],"properties":{"site_id":"DRBC-NUTR-ASSU","source":"Other","latitude":40.21826,"longitude":-74.763063}},{"type":"Point","coordinates":[-75.557,39.76],"properties":{"site_id":"DRBC-NUTR-BRAN","source":"Other","latitude":39.76035,"longitude":-75.556779}},{"type":"Point","coordinates":[-75.366,39.851],"properties":{"site_id":"DRBC-NUTR-CHES","source":"Other","latitude":39.85073,"longitude":-75.36554}},{"type":"Point","coordinates":[-75.551,39.735],"properties":{"site_id":"DRBC-NUTR-CHRI","source":"Other","latitude":39.735236,"longitude":-75.551033}},{"type":"Point","coordinates":[-75.086,39.933],"properties":{"site_id":"DRBC-NUTR-COOP","source":"Other","latitude":39.933259,"longitude":-75.086351}},{"type":"Point","coordinates":[-74.677,40.167],"properties":{"site_id":"DRBC-NUTR-CROS","source":"Other","latitude":40.167267,"longitude":-74.677339}},{"type":"Point","coordinates":[-75.341,39.867],"properties":{"site_id":"DRBC-NUTR-CRUM","source":"Other","latitude":39.866919,"longitude":-75.340823}},{"type":"Point","coordinates":[-75.305,39.877],"properties":{"site_id":"DRBC-NUTR-DARB","source":"Other","latitude":39.87655,"longitude":-75.30453}},{"type":"Point","coordinates":[-75.092,40.005],"properties":{"site_id":"DRBC-NUTR-FRAN","source":"Other","latitude":40.00545,"longitude":-75.092486}},{"type":"Point","coordinates":[-75.236,39.831],"properties":{"site_id":"DRBC-NUTR-MANT","source":"Other","latitude":39.831246,"longitude":-75.236045}},{"type":"Point","coordinates":[-74.912,40.142],"properties":{"site_id":"DRBC-NUTR-NESH","source":"Other","latitude":40.141561,"longitude":-74.912438}},{"type":"Point","coordinates":[-75.013,39.954],"properties":{"site_id":"DRBC-NUTR-PESO","source":"Other","latitude":39.954196,"longitude":-75.013308}},{"type":"Point","coordinates":[-75.022,40.037],"properties":{"site_id":"DRBC-NUTR-PNNY","source":"Other","latitude":40.036996,"longitude":-75.021723}},{"type":"Point","coordinates":[-74.981,40.065],"properties":{"site_id":"DRBC-NUTR-POQU","source":"Other","latitude":40.06486,"longitude":-74.98098}},{"type":"Point","coordinates":[-75.305,39.751],"properties":{"site_id":"DRBC-NUTR-RACC","source":"Other","latitude":39.751019,"longitude":-75.3053}},{"type":"Point","coordinates":[-74.793,39.993],"properties":{"site_id":"DRBC-NUTR-RANN","source":"Other","latitude":39.993224,"longitude":-74.792997}},{"type":"Point","coordinates":[-74.807,39.961],"properties":{"site_id":"DRBC-NUTR-RANS","source":"Other","latitude":39.961358,"longitude":-74.807316}},{"type":"Point","coordinates":[-75.367,39.873],"properties":{"site_id":"DRBC-NUTR-RIDL","source":"Other","latitude":39.87274,"longitude":-75.366612}},{"type":"Point","coordinates":[-75.477,39.578],"properties":{"site_id":"DRBC-NUTR-SALE","source":"Other","latitude":39.57768,"longitude":-75.47687}},{"type":"Point","coordinates":[-75.197,40.008],"properties":{"site_id":"DRBC-NUTR-SCHU","source":"Other","latitude":40.008369,"longitude":-75.19741}},{"type":"Point","coordinates":[-75.02,40.044],"properties":{"site_id":"DRBC-PPC","source":"Other","latitude":40.043686,"longitude":-75.020462}},{"type":"Point","coordinates":[-75.015,39.985],"properties":{"site_id":"DRBC-PSC","source":"Other","latitude":39.98537,"longitude":-75.015079}},{"type":"Point","coordinates":[-75.305,39.751],"properties":{"site_id":"DRBC-RAC","source":"Other","latitude":39.751102,"longitude":-75.305076}},{"type":"Point","coordinates":[-75.64,39.716],"properties":{"site_id":"DRBC-RCC","source":"Other","latitude":39.715709,"longitude":-75.640334}},{"type":"Point","coordinates":[-74.872,39.998],"properties":{"site_id":"DRBC-RNC","source":"Other","latitude":39.99769,"longitude":-74.872444}},{"type":"Point","coordinates":[-75.198,40.008],"properties":{"site_id":"DRBC-SHR","source":"Other","latitude":40.00795,"longitude":-75.1977}},{"type":"Point","coordinates":[-75.477,39.578],"properties":{"site_id":"DRBC-SLC","source":"Other","latitude":39.577675,"longitude":-75.476871}},{"type":"Point","coordinates":[-75.675,39.699],"properties":{"site_id":"DRBC-WCC","source":"Other","latitude":39.69889,"longitude":-75.675469}},{"type":"Point","coordinates":[-76.167,40.578],"properties":{"site_id":"KWMNDATA-BE001","source":"Other","latitude":40.5779,"longitude":-76.1673}},{"type":"Point","coordinates":[-75.509,40.136],"properties":{"site_id":"KWMNDATA-CA001","source":"Other","latitude":40.1357,"longitude":-75.5089}},{"type":"Point","coordinates":[-75.28,39.975],"properties":{"site_id":"KWMNDATA-CB001","source":"Other","latitude":39.9749,"longitude":-75.2797}},{"type":"Point","coordinates":[-75.193,40.639],"properties":{"site_id":"KWMNDATA-DR001","source":"Other","latitude":40.6387,"longitude":-75.1935}},